{
  "generatedAt": "2026-03-10T16:03:19.290Z",
  "county": {
    "id": "屏東縣",
    "countyCode": "10013",
    "legacyCountyId": "屏東縣",
    "name": "屏東縣",
    "shortLabel": "屏東",
    "region": "南部"
  },
  "precisions": {
    "5": [
      {
        "id": "5-wsj8v",
        "geohash": "wsj8v",
        "precision": 5,
        "count": 13,
        "totalStudents": 7712,
        "latitude": 22.661204,
        "longitude": 120.482781,
        "bounds": {
          "minLatitude": 22.638053,
          "maxLatitude": 22.674694,
          "minLongitude": 120.458388,
          "maxLongitude": 120.495833
        },
        "topSchools": [
          {
            "id": "130403",
            "name": "國立屏東高工",
            "townshipName": "屏東市",
            "students": 1648,
            "status": "正常"
          },
          {
            "id": "130302",
            "name": "國立屏東女中",
            "townshipName": "屏東市",
            "students": 1568,
            "status": "正常"
          },
          {
            "id": "134606",
            "name": "縣立鶴聲國小",
            "townshipName": "屏東市",
            "students": 1232,
            "status": "正常"
          },
          {
            "id": "134601",
            "name": "縣立中正國小",
            "townshipName": "屏東市",
            "students": 784,
            "status": "正常"
          }
        ]
      },
      {
        "id": "5-wsj8y",
        "geohash": "wsj8y",
        "precision": 5,
        "count": 12,
        "totalStudents": 13944,
        "latitude": 22.664428,
        "longitude": 120.509598,
        "bounds": {
          "minLatitude": 22.641406,
          "maxLatitude": 22.674512,
          "minLongitude": 120.498823,
          "maxLongitude": 120.536192
        },
        "topSchools": [
          {
            "id": "0052",
            "name": "國立屏東大學",
            "townshipName": "屏東市",
            "students": 8740,
            "status": "正常"
          },
          {
            "id": "131307",
            "name": "財團法人屏榮高中",
            "townshipName": "屏東市",
            "students": 1709,
            "status": "正常"
          },
          {
            "id": "134502",
            "name": "縣立中正國中",
            "townshipName": "屏東市",
            "students": 1471,
            "status": "正常"
          },
          {
            "id": "130601",
            "name": "國立屏東大學實小",
            "townshipName": "屏東市",
            "students": 663,
            "status": "正常"
          }
        ]
      },
      {
        "id": "5-wsj9j",
        "geohash": "wsj9j",
        "precision": 5,
        "count": 10,
        "totalStudents": 8826,
        "latitude": 22.685827,
        "longitude": 120.486709,
        "bounds": {
          "minLatitude": 22.676618,
          "maxLatitude": 22.717798,
          "minLongitude": 120.476273,
          "maxLongitude": 120.497564
        },
        "topSchools": [
          {
            "id": "134501",
            "name": "縣立明正國中",
            "townshipName": "屏東市",
            "students": 1695,
            "status": "正常"
          },
          {
            "id": "130305",
            "name": "國立屏東高中",
            "townshipName": "屏東市",
            "students": 1431,
            "status": "正常"
          },
          {
            "id": "134602",
            "name": "縣立仁愛國小",
            "townshipName": "屏東市",
            "students": 1318,
            "status": "正常"
          },
          {
            "id": "134774",
            "name": "縣立崇蘭國小",
            "townshipName": "屏東市",
            "students": 989,
            "status": "正常"
          }
        ]
      },
      {
        "id": "5-wevxv",
        "geohash": "wevxv",
        "precision": 5,
        "count": 10,
        "totalStudents": 5943,
        "latitude": 22.471459,
        "longitude": 120.466004,
        "bounds": {
          "minLatitude": 22.456819,
          "maxLatitude": 22.48784,
          "minLongitude": 120.454724,
          "maxLongitude": 120.495991
        },
        "topSchools": [
          {
            "id": "1285",
            "name": "慈惠醫護管理專科學校",
            "townshipName": "南州鄉",
            "students": 1798,
            "status": "正常"
          },
          {
            "id": "134324:國中",
            "name": "縣立東港高中附設國中部",
            "townshipName": "東港鎮",
            "students": 1010,
            "status": "正常"
          },
          {
            "id": "134783",
            "name": "縣立東光國小",
            "townshipName": "東港鎮",
            "students": 705,
            "status": "正常"
          },
          {
            "id": "134324",
            "name": "縣立東港高中",
            "townshipName": "東港鎮",
            "students": 602,
            "status": "正常"
          }
        ]
      },
      {
        "id": "5-wsj9r",
        "geohash": "wsj9r",
        "precision": 5,
        "count": 10,
        "totalStudents": 5700,
        "latitude": 22.740688,
        "longitude": 120.55639,
        "bounds": {
          "minLatitude": 22.726824,
          "maxLatitude": 22.75935,
          "minLongitude": 120.542721,
          "maxLongitude": 120.582684
        },
        "topSchools": [
          {
            "id": "1043",
            "name": "大仁科技大學",
            "townshipName": "鹽埔鄉",
            "students": 3809,
            "status": "正常"
          },
          {
            "id": "130322",
            "name": "國立屏北高中",
            "townshipName": "鹽埔鄉",
            "students": 665,
            "status": "正常"
          },
          {
            "id": "134634",
            "name": "縣立新圍國小",
            "townshipName": "鹽埔鄉",
            "students": 380,
            "status": "正常"
          },
          {
            "id": "134511",
            "name": "縣立鹽埔國中",
            "townshipName": "鹽埔鄉",
            "students": 297,
            "status": "正常"
          }
        ]
      },
      {
        "id": "5-wsj8r",
        "geohash": "wsj8r",
        "precision": 5,
        "count": 8,
        "totalStudents": 3974,
        "latitude": 22.559817,
        "longitude": 120.555164,
        "bounds": {
          "minLatitude": 22.545277,
          "maxLatitude": 22.58229,
          "minLongitude": 120.543356,
          "maxLongitude": 120.574719
        },
        "topSchools": [
          {
            "id": "130306",
            "name": "國立潮州高中",
            "townshipName": "潮州鎮",
            "students": 1306,
            "status": "正常"
          },
          {
            "id": "134517",
            "name": "縣立潮州國中",
            "townshipName": "潮州鎮",
            "students": 675,
            "status": "正常"
          },
          {
            "id": "134653",
            "name": "縣立光華國小",
            "townshipName": "潮州鎮",
            "students": 664,
            "status": "正常"
          },
          {
            "id": "134777",
            "name": "縣立潮昇國小",
            "townshipName": "潮州鎮",
            "students": 540,
            "status": "正常"
          }
        ]
      },
      {
        "id": "5-wsj8x",
        "geohash": "wsj8x",
        "precision": 5,
        "count": 7,
        "totalStudents": 6939,
        "latitude": 22.605329,
        "longitude": 120.56217,
        "bounds": {
          "minLatitude": 22.594694,
          "maxLatitude": 22.615954,
          "minLongitude": 120.556588,
          "maxLongitude": 120.570544
        },
        "topSchools": [
          {
            "id": "1064",
            "name": "美和科技大學",
            "townshipName": "內埔鄉",
            "students": 4460,
            "status": "正常"
          },
          {
            "id": "131311:國中",
            "name": "私立美和高中附設國中部",
            "townshipName": "內埔鄉",
            "students": 673,
            "status": "正常"
          },
          {
            "id": "134662",
            "name": "縣立內埔國小",
            "townshipName": "內埔鄉",
            "students": 522,
            "status": "正常"
          },
          {
            "id": "131311",
            "name": "私立美和高中",
            "townshipName": "內埔鄉",
            "students": 484,
            "status": "正常"
          }
        ]
      },
      {
        "id": "5-wsj8m",
        "geohash": "wsj8m",
        "precision": 5,
        "count": 7,
        "totalStudents": 2053,
        "latitude": 22.559801,
        "longitude": 120.473774,
        "bounds": {
          "minLatitude": 22.544298,
          "maxLatitude": 22.582586,
          "minLongitude": 120.458675,
          "maxLongitude": 120.492297
        },
        "topSchools": [
          {
            "id": "134617",
            "name": "縣立萬丹國小",
            "townshipName": "萬丹鄉",
            "students": 783,
            "status": "正常"
          },
          {
            "id": "134523",
            "name": "縣立新園國中",
            "townshipName": "新園鄉",
            "students": 324,
            "status": "正常"
          },
          {
            "id": "134692",
            "name": "縣立仙吉國小",
            "townshipName": "新園鄉",
            "students": 302,
            "status": "正常"
          },
          {
            "id": "134542",
            "name": "縣立萬新國中",
            "townshipName": "萬丹鄉",
            "students": 282,
            "status": "正常"
          }
        ]
      },
      {
        "id": "5-wevxw",
        "geohash": "wevxw",
        "precision": 5,
        "count": 6,
        "totalStudents": 885,
        "latitude": 22.433039,
        "longitude": 120.518597,
        "bounds": {
          "minLatitude": 22.418933,
          "maxLatitude": 22.44996,
          "minLongitude": 120.505232,
          "maxLongitude": 120.539726
        },
        "topSchools": [
          {
            "id": "134525",
            "name": "縣立林邊國中",
            "townshipName": "林邊鄉",
            "students": 364,
            "status": "正常"
          },
          {
            "id": "134703",
            "name": "縣立林邊國小",
            "townshipName": "林邊鄉",
            "students": 222,
            "status": "正常"
          },
          {
            "id": "134704",
            "name": "縣立仁和國小",
            "townshipName": "林邊鄉",
            "students": 184,
            "status": "正常"
          },
          {
            "id": "134713",
            "name": "縣立羌園國小",
            "townshipName": "佳冬鄉",
            "students": 73,
            "status": "正常"
          }
        ]
      },
      {
        "id": "5-wsj9n",
        "geohash": "wsj9n",
        "precision": 5,
        "count": 6,
        "totalStudents": 2282,
        "latitude": 22.685694,
        "longitude": 120.514919,
        "bounds": {
          "minLatitude": 22.677119,
          "maxLatitude": 22.698071,
          "minLongitude": 120.501721,
          "maxLongitude": 120.541159
        },
        "topSchools": [
          {
            "id": "134615",
            "name": "縣立忠孝國小",
            "townshipName": "屏東市",
            "students": 824,
            "status": "正常"
          },
          {
            "id": "134628",
            "name": "縣立長興國小",
            "townshipName": "長治鄉",
            "students": 495,
            "status": "正常"
          },
          {
            "id": "134616",
            "name": "縣立和平國小",
            "townshipName": "屏東市",
            "students": 495,
            "status": "正常"
          },
          {
            "id": "134603",
            "name": "縣立海豐國小",
            "townshipName": "屏東市",
            "students": 224,
            "status": "正常"
          }
        ]
      },
      {
        "id": "5-wsj8n",
        "geohash": "wsj8n",
        "precision": 5,
        "count": 6,
        "totalStudents": 1922,
        "latitude": 22.52554,
        "longitude": 120.525606,
        "bounds": {
          "minLatitude": 22.512311,
          "maxLatitude": 22.540326,
          "minLongitude": 120.50924,
          "maxLongitude": 120.540141
        },
        "topSchools": [
          {
            "id": "131501",
            "name": "私立南榮國中(代用)",
            "townshipName": "崁頂鄉",
            "students": 1052,
            "status": "正常"
          },
          {
            "id": "134652",
            "name": "縣立光春國小",
            "townshipName": "潮州鎮",
            "students": 337,
            "status": "正常"
          },
          {
            "id": "134518",
            "name": "縣立光春國中",
            "townshipName": "潮州鎮",
            "students": 273,
            "status": "正常"
          },
          {
            "id": "134700",
            "name": "縣立崁頂國小",
            "townshipName": "崁頂鄉",
            "students": 110,
            "status": "正常"
          }
        ]
      },
      {
        "id": "5-wsjc1",
        "geohash": "wsjc1",
        "precision": 5,
        "count": 5,
        "totalStudents": 844,
        "latitude": 22.706205,
        "longitude": 120.644255,
        "bounds": {
          "minLatitude": 22.69789,
          "maxLatitude": 22.715005,
          "minLongitude": 120.635584,
          "maxLongitude": 120.654465
        },
        "topSchools": [
          {
            "id": "130401",
            "name": "國立內埔農工",
            "townshipName": "內埔鄉",
            "students": 464,
            "status": "正常"
          },
          {
            "id": "134737",
            "name": "縣立地磨兒國小",
            "townshipName": "三地門鄉",
            "students": 126,
            "status": "正常"
          },
          {
            "id": "134787",
            "name": "縣立長榮百合國小",
            "townshipName": "瑪家鄉",
            "students": 122,
            "status": "正常"
          },
          {
            "id": "134746",
            "name": "縣立北葉國小",
            "townshipName": "瑪家鄉",
            "students": 101,
            "status": "正常"
          }
        ]
      },
      {
        "id": "5-wsj9t",
        "geohash": "wsj9t",
        "precision": 5,
        "count": 5,
        "totalStudents": 1496,
        "latitude": 22.779776,
        "longitude": 120.491659,
        "bounds": {
          "minLatitude": 22.765455,
          "maxLatitude": 22.807582,
          "minLongitude": 120.483746,
          "maxLongitude": 120.496838
        },
        "topSchools": [
          {
            "id": "134510",
            "name": "縣立里港國中",
            "townshipName": "里港鄉",
            "students": 516,
            "status": "正常"
          },
          {
            "id": "134781",
            "name": "縣立玉田國小",
            "townshipName": "里港鄉",
            "students": 469,
            "status": "正常"
          },
          {
            "id": "134646",
            "name": "縣立里港國小",
            "townshipName": "里港鄉",
            "students": 376,
            "status": "正常"
          },
          {
            "id": "134648",
            "name": "縣立土庫國小",
            "townshipName": "里港鄉",
            "students": 77,
            "status": "正常"
          }
        ]
      },
      {
        "id": "5-wevxx",
        "geohash": "wevxx",
        "precision": 5,
        "count": 5,
        "totalStudents": 1214,
        "latitude": 22.427464,
        "longitude": 120.561769,
        "bounds": {
          "minLatitude": 22.413645,
          "maxLatitude": 22.446162,
          "minLongitude": 120.552149,
          "maxLongitude": 120.566753
        },
        "topSchools": [
          {
            "id": "130404",
            "name": "國立佳冬高農",
            "townshipName": "佳冬鄉",
            "students": 641,
            "status": "正常"
          },
          {
            "id": "134711",
            "name": "縣立佳冬國小",
            "townshipName": "佳冬鄉",
            "students": 265,
            "status": "正常"
          },
          {
            "id": "134716",
            "name": "縣立玉光國小",
            "townshipName": "佳冬鄉",
            "students": 134,
            "status": "正常"
          },
          {
            "id": "134527",
            "name": "縣立佳冬國中",
            "townshipName": "佳冬鄉",
            "students": 130,
            "status": "正常"
          }
        ]
      },
      {
        "id": "5-wevxy",
        "geohash": "wevxy",
        "precision": 5,
        "count": 5,
        "totalStudents": 550,
        "latitude": 22.481687,
        "longitude": 120.515682,
        "bounds": {
          "minLatitude": 22.463993,
          "maxLatitude": 22.495761,
          "minLongitude": 120.505407,
          "maxLongitude": 120.533187
        },
        "topSchools": [
          {
            "id": "134710",
            "name": "縣立溪北國小",
            "townshipName": "南州鄉",
            "students": 243,
            "status": "正常"
          },
          {
            "id": "134526",
            "name": "縣立南州國中",
            "townshipName": "南州鄉",
            "students": 98,
            "status": "正常"
          },
          {
            "id": "134708",
            "name": "縣立南州國小",
            "townshipName": "南州鄉",
            "students": 95,
            "status": "正常"
          },
          {
            "id": "134709",
            "name": "縣立同安國小",
            "townshipName": "南州鄉",
            "students": 69,
            "status": "正常"
          }
        ]
      },
      {
        "id": "5-wsj9p",
        "geohash": "wsj9p",
        "precision": 5,
        "count": 5,
        "totalStudents": 553,
        "latitude": 22.688261,
        "longitude": 120.55139,
        "bounds": {
          "minLatitude": 22.681928,
          "maxLatitude": 22.702305,
          "minLongitude": 120.544334,
          "maxLongitude": 120.572181
        },
        "topSchools": [
          {
            "id": "134629",
            "name": "縣立繁華國小",
            "townshipName": "長治鄉",
            "students": 275,
            "status": "正常"
          },
          {
            "id": "134507",
            "name": "縣立長治國中",
            "townshipName": "長治鄉",
            "students": 219,
            "status": "正常"
          },
          {
            "id": "131601",
            "name": "私立崇華國小",
            "townshipName": "長治鄉",
            "students": 50,
            "status": "正常"
          },
          {
            "id": "131302:國中",
            "name": "私立崇華國中附設國中",
            "townshipName": "長治鄉",
            "students": 6,
            "status": "正常"
          }
        ]
      },
      {
        "id": "5-wsj8t",
        "geohash": "wsj8t",
        "precision": 5,
        "count": 5,
        "totalStudents": 1816,
        "latitude": 22.602865,
        "longitude": 120.479698,
        "bounds": {
          "minLatitude": 22.592867,
          "maxLatitude": 22.614896,
          "minLongitude": 120.461711,
          "maxLongitude": 120.490448
        },
        "topSchools": [
          {
            "id": "134522",
            "name": "縣立萬丹國中",
            "townshipName": "萬丹鄉",
            "students": 641,
            "status": "正常"
          },
          {
            "id": "134775",
            "name": "縣立四維國小",
            "townshipName": "萬丹鄉",
            "students": 522,
            "status": "正常"
          },
          {
            "id": "134621",
            "name": "縣立社皮國小",
            "townshipName": "萬丹鄉",
            "students": 478,
            "status": "正常"
          },
          {
            "id": "134619",
            "name": "縣立興華國小",
            "townshipName": "萬丹鄉",
            "students": 100,
            "status": "正常"
          }
        ]
      },
      {
        "id": "5-wsj8w",
        "geohash": "wsj8w",
        "precision": 5,
        "count": 4,
        "totalStudents": 788,
        "latitude": 22.619796,
        "longitude": 120.532544,
        "bounds": {
          "minLatitude": 22.615392,
          "maxLatitude": 22.626578,
          "minLongitude": 120.523362,
          "maxLongitude": 120.540595
        },
        "topSchools": [
          {
            "id": "134672",
            "name": "縣立豐田國小",
            "townshipName": "內埔鄉",
            "students": 308,
            "status": "正常"
          },
          {
            "id": "134516",
            "name": "縣立竹田國中",
            "townshipName": "竹田鄉",
            "students": 223,
            "status": "正常"
          },
          {
            "id": "134673",
            "name": "縣立富田國小",
            "townshipName": "內埔鄉",
            "students": 137,
            "status": "正常"
          },
          {
            "id": "134675",
            "name": "縣立西勢國小",
            "townshipName": "竹田鄉",
            "students": 120,
            "status": "正常"
          }
        ]
      },
      {
        "id": "5-wsjb8",
        "geohash": "wsjb8",
        "precision": 5,
        "count": 4,
        "totalStudents": 392,
        "latitude": 22.604852,
        "longitude": 120.603333,
        "bounds": {
          "minLatitude": 22.590706,
          "maxLatitude": 22.630769,
          "minLongitude": 120.593982,
          "maxLongitude": 120.614429
        },
        "topSchools": [
          {
            "id": "134658",
            "name": "縣立五溝國小",
            "townshipName": "萬巒鄉",
            "students": 186,
            "status": "正常"
          },
          {
            "id": "134752",
            "name": "縣立泰武國小",
            "townshipName": "泰武鄉",
            "students": 96,
            "status": "正常"
          },
          {
            "id": "134670",
            "name": "縣立泰安國小",
            "townshipName": "內埔鄉",
            "students": 62,
            "status": "正常"
          },
          {
            "id": "134661",
            "name": "縣立赤山國小",
            "townshipName": "萬巒鄉",
            "students": 48,
            "status": "正常"
          }
        ]
      },
      {
        "id": "5-wsj8q",
        "geohash": "wsj8q",
        "precision": 5,
        "count": 4,
        "totalStudents": 1254,
        "latitude": 22.557609,
        "longitude": 120.525956,
        "bounds": {
          "minLatitude": 22.548424,
          "maxLatitude": 22.575558,
          "minLongitude": 120.499617,
          "maxLongitude": 120.541148
        },
        "topSchools": [
          {
            "id": "134651",
            "name": "縣立潮州國小",
            "townshipName": "潮州鎮",
            "students": 600,
            "status": "正常"
          },
          {
            "id": "134778",
            "name": "縣立潮和國小",
            "townshipName": "潮州鎮",
            "students": 506,
            "status": "正常"
          },
          {
            "id": "134623",
            "name": "縣立興化國小",
            "townshipName": "萬丹鄉",
            "students": 78,
            "status": "正常"
          },
          {
            "id": "134676",
            "name": "縣立大明國小",
            "townshipName": "竹田鄉",
            "students": 70,
            "status": "正常"
          }
        ]
      },
      {
        "id": "5-wsjb0",
        "geohash": "wsjb0",
        "precision": 5,
        "count": 4,
        "totalStudents": 440,
        "latitude": 22.521788,
        "longitude": 120.618542,
        "bounds": {
          "minLatitude": 22.507699,
          "maxLatitude": 22.528254,
          "minLongitude": 120.587959,
          "maxLongitude": 120.62936
        },
        "topSchools": [
          {
            "id": "134334:國中",
            "name": "縣立來義中學附設國中部",
            "townshipName": "來義鄉",
            "students": 204,
            "status": "正常"
          },
          {
            "id": "134334",
            "name": "縣立來義高中",
            "townshipName": "來義鄉",
            "students": 136,
            "status": "正常"
          },
          {
            "id": "134758",
            "name": "縣立古樓國小",
            "townshipName": "來義鄉",
            "students": 59,
            "status": "正常"
          },
          {
            "id": "134679",
            "name": "縣立萬隆國小",
            "townshipName": "新埤鄉",
            "students": 41,
            "status": "正常"
          }
        ]
      },
      {
        "id": "5-wevxu",
        "geohash": "wevxu",
        "precision": 5,
        "count": 4,
        "totalStudents": 1530,
        "latitude": 22.47064,
        "longitude": 120.44398,
        "bounds": {
          "minLatitude": 22.464428,
          "maxLatitude": 22.488294,
          "minLongitude": 120.440676,
          "maxLongitude": 120.45063
        },
        "topSchools": [
          {
            "id": "130410",
            "name": "國立東港海事",
            "townshipName": "東港鎮",
            "students": 615,
            "status": "正常"
          },
          {
            "id": "134687",
            "name": "縣立東隆國小",
            "townshipName": "東港鎮",
            "students": 606,
            "status": "正常"
          },
          {
            "id": "134695",
            "name": "縣立鹽洲國小",
            "townshipName": "新園鄉",
            "students": 234,
            "status": "正常"
          },
          {
            "id": "134688",
            "name": "縣立海濱國小",
            "townshipName": "東港鎮",
            "students": 75,
            "status": "正常"
          }
        ]
      },
      {
        "id": "5-wevz0",
        "geohash": "wevz0",
        "precision": 5,
        "count": 4,
        "totalStudents": 548,
        "latitude": 22.355523,
        "longitude": 120.609461,
        "bounds": {
          "minLatitude": 22.330152,
          "maxLatitude": 22.367836,
          "minLongitude": 120.59076,
          "maxLongitude": 120.625987
        },
        "topSchools": [
          {
            "id": "134682",
            "name": "縣立僑德國小",
            "townshipName": "枋寮鄉",
            "students": 286,
            "status": "正常"
          },
          {
            "id": "134681",
            "name": "縣立枋寮國小",
            "townshipName": "枋寮鄉",
            "students": 127,
            "status": "正常"
          },
          {
            "id": "134736",
            "name": "縣立加祿國小",
            "townshipName": "枋山鄉",
            "students": 84,
            "status": "正常"
          },
          {
            "id": "134761",
            "name": "縣立古華國小",
            "townshipName": "春日鄉",
            "students": 51,
            "status": "正常"
          }
        ]
      },
      {
        "id": "5-wevz2",
        "geohash": "wevz2",
        "precision": 5,
        "count": 4,
        "totalStudents": 1279,
        "latitude": 22.374739,
        "longitude": 120.602455,
        "bounds": {
          "minLatitude": 22.37029,
          "maxLatitude": 22.386497,
          "minLongitude": 120.590665,
          "maxLongitude": 120.627012
        },
        "topSchools": [
          {
            "id": "134321:國中",
            "name": "縣立枋寮高中附設國中部",
            "townshipName": "枋寮鄉",
            "students": 496,
            "status": "正常"
          },
          {
            "id": "134683",
            "name": "縣立建興國小",
            "townshipName": "枋寮鄉",
            "students": 439,
            "status": "正常"
          },
          {
            "id": "134321",
            "name": "縣立枋寮高中",
            "townshipName": "枋寮鄉",
            "students": 250,
            "status": "正常"
          },
          {
            "id": "134759",
            "name": "縣立春日國小",
            "townshipName": "春日鄉",
            "students": 94,
            "status": "正常"
          }
        ]
      },
      {
        "id": "5-wevv5",
        "geohash": "wevv5",
        "precision": 5,
        "count": 4,
        "totalStudents": 2069,
        "latitude": 22.00253,
        "longitude": 120.74623,
        "bounds": {
          "minLatitude": 21.992792,
          "maxLatitude": 22.008654,
          "minLongitude": 120.744218,
          "maxLongitude": 120.74709
        },
        "topSchools": [
          {
            "id": "134717",
            "name": "縣立恆春國小",
            "townshipName": "恆春鎮",
            "students": 604,
            "status": "正常"
          },
          {
            "id": "134531",
            "name": "縣立恆春國中",
            "townshipName": "恆春鎮",
            "students": 583,
            "status": "正常"
          },
          {
            "id": "134718",
            "name": "縣立僑勇國小",
            "townshipName": "恆春鎮",
            "students": 450,
            "status": "正常"
          },
          {
            "id": "130417",
            "name": "國立恆春工商",
            "townshipName": "恆春鎮",
            "students": 432,
            "status": "正常"
          }
        ]
      },
      {
        "id": "5-wevx5",
        "geohash": "wevx5",
        "precision": 5,
        "count": 4,
        "totalStudents": 471,
        "latitude": 22.34233,
        "longitude": 120.373223,
        "bounds": {
          "minLatitude": 22.335082,
          "maxLatitude": 22.350417,
          "minLongitude": 120.367967,
          "maxLongitude": 120.38687
        },
        "topSchools": [
          {
            "id": "134528",
            "name": "縣立琉球國中",
            "townshipName": "琉球鄉",
            "students": 173,
            "status": "正常"
          },
          {
            "id": "134696",
            "name": "縣立琉球國小",
            "townshipName": "琉球鄉",
            "students": 128,
            "status": "正常"
          },
          {
            "id": "134698",
            "name": "縣立全德國小",
            "townshipName": "琉球鄉",
            "students": 88,
            "status": "正常"
          },
          {
            "id": "134699",
            "name": "縣立白沙國小",
            "townshipName": "琉球鄉",
            "students": 82,
            "status": "正常"
          }
        ]
      },
      {
        "id": "5-wsj9q",
        "geohash": "wsj9q",
        "precision": 5,
        "count": 3,
        "totalStudents": 310,
        "latitude": 22.739737,
        "longitude": 120.51043,
        "bounds": {
          "minLatitude": 22.724027,
          "maxLatitude": 22.755635,
          "minLongitude": 120.49895,
          "maxLongitude": 120.531638
        },
        "topSchools": [
          {
            "id": "134626",
            "name": "縣立後庄國小",
            "townshipName": "九如鄉",
            "students": 111,
            "status": "正常"
          },
          {
            "id": "134635",
            "name": "縣立彭厝國小",
            "townshipName": "鹽埔鄉",
            "students": 109,
            "status": "正常"
          },
          {
            "id": "134627",
            "name": "縣立惠農國小",
            "townshipName": "九如鄉",
            "students": 90,
            "status": "正常"
          }
        ]
      },
      {
        "id": "5-wsjbb",
        "geohash": "wsjbb",
        "precision": 5,
        "count": 3,
        "totalStudents": 10295,
        "latitude": 22.659124,
        "longitude": 120.600348,
        "bounds": {
          "minLatitude": 22.643306,
          "maxLatitude": 22.667213,
          "minLongitude": 120.590732,
          "maxLongitude": 120.609986
        },
        "topSchools": [
          {
            "id": "0024",
            "name": "國立屏東科技大學",
            "townshipName": "內埔鄉",
            "students": 10003,
            "status": "正常"
          },
          {
            "id": "134665",
            "name": "縣立崇文國小",
            "townshipName": "內埔鄉",
            "students": 209,
            "status": "正常"
          },
          {
            "id": "134666",
            "name": "縣立新生國小",
            "townshipName": "內埔鄉",
            "students": 83,
            "status": "正常"
          }
        ]
      },
      {
        "id": "5-wsjc0",
        "geohash": "wsjc0",
        "precision": 5,
        "count": 3,
        "totalStudents": 681,
        "latitude": 22.689311,
        "longitude": 120.603043,
        "bounds": {
          "minLatitude": 22.678545,
          "maxLatitude": 22.702035,
          "minLongitude": 120.59672,
          "maxLongitude": 120.610259
        },
        "topSchools": [
          {
            "id": "134668",
            "name": "縣立黎明國小",
            "townshipName": "內埔鄉",
            "students": 285,
            "status": "正常"
          },
          {
            "id": "134515",
            "name": "縣立崇文國中",
            "townshipName": "內埔鄉",
            "students": 236,
            "status": "正常"
          },
          {
            "id": "134533",
            "name": "縣立瑪家國中",
            "townshipName": "瑪家鄉",
            "students": 160,
            "status": "正常"
          }
        ]
      },
      {
        "id": "5-wevzb",
        "geohash": "wevzb",
        "precision": 5,
        "count": 3,
        "totalStudents": 193,
        "latitude": 22.477061,
        "longitude": 120.619363,
        "bounds": {
          "minLatitude": 22.462818,
          "maxLatitude": 22.492973,
          "minLongitude": 120.611011,
          "maxLongitude": 120.624055
        },
        "topSchools": [
          {
            "id": "134680",
            "name": "縣立餉潭國小",
            "townshipName": "新埤鄉",
            "students": 80,
            "status": "正常"
          },
          {
            "id": "134755",
            "name": "縣立望嘉國小",
            "townshipName": "來義鄉",
            "students": 58,
            "status": "正常"
          },
          {
            "id": "134756",
            "name": "縣立文樂國小",
            "townshipName": "來義鄉",
            "students": 55,
            "status": "正常"
          }
        ]
      },
      {
        "id": "5-wsjcb",
        "geohash": "wsjcb",
        "precision": 5,
        "count": 3,
        "totalStudents": 543,
        "latitude": 22.83039,
        "longitude": 120.604558,
        "bounds": {
          "minLatitude": 22.816812,
          "maxLatitude": 22.848225,
          "minLongitude": 120.599133,
          "maxLongitude": 120.609742
        },
        "topSchools": [
          {
            "id": "134637",
            "name": "縣立高樹國小",
            "townshipName": "高樹鄉",
            "students": 348,
            "status": "正常"
          },
          {
            "id": "134512",
            "name": "縣立高樹國中",
            "townshipName": "高樹鄉",
            "students": 195,
            "status": "正常"
          },
          {
            "id": "134638:國小",
            "name": "縣立舊寮國小",
            "townshipName": "高樹鄉",
            "students": 0,
            "status": "待確認"
          }
        ]
      },
      {
        "id": "5-wsjc2",
        "geohash": "wsjc2",
        "precision": 5,
        "count": 3,
        "totalStudents": 132,
        "latitude": 22.734884,
        "longitude": 120.617143,
        "bounds": {
          "minLatitude": 22.726001,
          "maxLatitude": 22.739397,
          "minLongitude": 120.610074,
          "maxLongitude": 120.620698
        },
        "topSchools": [
          {
            "id": "134636",
            "name": "縣立振興國小",
            "townshipName": "鹽埔鄉",
            "students": 68,
            "status": "正常"
          },
          {
            "id": "134644",
            "name": "縣立大路關國小",
            "townshipName": "高樹鄉",
            "students": 64,
            "status": "正常"
          },
          {
            "id": "134543:國中",
            "name": "縣立大路關國中(小)",
            "townshipName": "高樹鄉",
            "students": 0,
            "status": "待確認"
          }
        ]
      },
      {
        "id": "5-wevxz",
        "geohash": "wevxz",
        "precision": 5,
        "count": 3,
        "totalStudents": 208,
        "latitude": 22.483219,
        "longitude": 120.555662,
        "bounds": {
          "minLatitude": 22.470655,
          "maxLatitude": 22.495373,
          "minLongitude": 120.55009,
          "maxLongitude": 120.565576
        },
        "topSchools": [
          {
            "id": "134678",
            "name": "縣立大成國小",
            "townshipName": "新埤鄉",
            "students": 99,
            "status": "正常"
          },
          {
            "id": "134677",
            "name": "縣立新埤國小",
            "townshipName": "新埤鄉",
            "students": 60,
            "status": "正常"
          },
          {
            "id": "134520",
            "name": "縣立新埤國中",
            "townshipName": "新埤鄉",
            "students": 49,
            "status": "正常"
          }
        ]
      },
      {
        "id": "5-wsj9m",
        "geohash": "wsj9m",
        "precision": 5,
        "count": 2,
        "totalStudents": 559,
        "latitude": 22.737696,
        "longitude": 120.485846,
        "bounds": {
          "minLatitude": 22.726705,
          "maxLatitude": 22.748687,
          "minLongitude": 120.485416,
          "maxLongitude": 120.486276
        },
        "topSchools": [
          {
            "id": "134625",
            "name": "縣立九如國小",
            "townshipName": "九如鄉",
            "students": 483,
            "status": "正常"
          },
          {
            "id": "134771",
            "name": "縣立三多國小",
            "townshipName": "九如鄉",
            "students": 76,
            "status": "正常"
          }
        ]
      },
      {
        "id": "5-wsjcc",
        "geohash": "wsjcc",
        "precision": 5,
        "count": 2,
        "totalStudents": 86,
        "latitude": 22.827642,
        "longitude": 120.640305,
        "bounds": {
          "minLatitude": 22.817009,
          "maxLatitude": 22.838275,
          "minLongitude": 120.639277,
          "maxLongitude": 120.641332
        },
        "topSchools": [
          {
            "id": "134740",
            "name": "縣立青山國小",
            "townshipName": "三地門鄉",
            "students": 49,
            "status": "正常"
          },
          {
            "id": "134741",
            "name": "縣立青葉國小",
            "townshipName": "三地門鄉",
            "students": 37,
            "status": "正常"
          }
        ]
      },
      {
        "id": "5-wsj8z",
        "geohash": "wsj8z",
        "precision": 5,
        "count": 2,
        "totalStudents": 145,
        "latitude": 22.648972,
        "longitude": 120.56942,
        "bounds": {
          "minLatitude": 22.637131,
          "maxLatitude": 22.660814,
          "minLongitude": 120.564626,
          "maxLongitude": 120.574214
        },
        "topSchools": [
          {
            "id": "134671",
            "name": "縣立東勢國小",
            "townshipName": "內埔鄉",
            "students": 88,
            "status": "正常"
          },
          {
            "id": "134667",
            "name": "縣立榮華國小",
            "townshipName": "內埔鄉",
            "students": 57,
            "status": "正常"
          }
        ]
      },
      {
        "id": "5-wevvu",
        "geohash": "wevvu",
        "precision": 5,
        "count": 2,
        "totalStudents": 148,
        "latitude": 22.127498,
        "longitude": 120.774142,
        "bounds": {
          "minLatitude": 22.125823,
          "maxLatitude": 22.129172,
          "minLongitude": 120.772542,
          "maxLongitude": 120.775742
        },
        "topSchools": [
          {
            "id": "134766",
            "name": "縣立石門國小",
            "townshipName": "牡丹鄉",
            "students": 86,
            "status": "正常"
          },
          {
            "id": "134536",
            "name": "縣立牡丹國中",
            "townshipName": "牡丹鄉",
            "students": 62,
            "status": "正常"
          }
        ]
      },
      {
        "id": "5-wevvd",
        "geohash": "wevvd",
        "precision": 5,
        "count": 2,
        "totalStudents": 419,
        "latitude": 22.074143,
        "longitude": 120.715769,
        "bounds": {
          "minLatitude": 22.073237,
          "maxLatitude": 22.07505,
          "minLongitude": 120.714661,
          "maxLongitude": 120.716878
        },
        "topSchools": [
          {
            "id": "134725",
            "name": "縣立車城國小",
            "townshipName": "車城鄉",
            "students": 221,
            "status": "正常"
          },
          {
            "id": "134530",
            "name": "縣立車城國中",
            "townshipName": "車城鄉",
            "students": 198,
            "status": "正常"
          }
        ]
      },
      {
        "id": "5-wevy6",
        "geohash": "wevy6",
        "precision": 5,
        "count": 2,
        "totalStudents": 62,
        "latitude": 22.201986,
        "longitude": 120.703986,
        "bounds": {
          "minLatitude": 22.199368,
          "maxLatitude": 22.204604,
          "minLongitude": 120.700806,
          "maxLongitude": 120.707166
        },
        "topSchools": [
          {
            "id": "134537",
            "name": "縣立獅子國中",
            "townshipName": "枋山鄉",
            "students": 40,
            "status": "正常"
          },
          {
            "id": "134762",
            "name": "縣立楓林國小",
            "townshipName": "獅子鄉",
            "students": 22,
            "status": "正常"
          }
        ]
      },
      {
        "id": "5-wevug",
        "geohash": "wevug",
        "precision": 5,
        "count": 2,
        "totalStudents": 125,
        "latitude": 21.945836,
        "longitude": 120.736318,
        "bounds": {
          "minLatitude": 21.940457,
          "maxLatitude": 21.951214,
          "minLongitude": 120.732446,
          "maxLongitude": 120.74019
        },
        "topSchools": [
          {
            "id": "134722",
            "name": "縣立水泉國小",
            "townshipName": "恆春鎮",
            "students": 88,
            "status": "正常"
          },
          {
            "id": "134721",
            "name": "縣立大光國小",
            "townshipName": "恆春鎮",
            "students": 37,
            "status": "正常"
          }
        ]
      },
      {
        "id": "5-wsj8j",
        "geohash": "wsj8j",
        "precision": 5,
        "count": 2,
        "totalStudents": 152,
        "latitude": 22.508679,
        "longitude": 120.468745,
        "bounds": {
          "minLatitude": 22.508651,
          "maxLatitude": 22.508707,
          "minLongitude": 120.455568,
          "maxLongitude": 120.481922
        },
        "topSchools": [
          {
            "id": "134701",
            "name": "縣立港東國小",
            "townshipName": "崁頂鄉",
            "students": 88,
            "status": "正常"
          },
          {
            "id": "134694",
            "name": "縣立港西國小",
            "townshipName": "新園鄉",
            "students": 64,
            "status": "正常"
          }
        ]
      },
      {
        "id": "5-wsjb9",
        "geohash": "wsjb9",
        "precision": 5,
        "count": 2,
        "totalStudents": 180,
        "latitude": 22.609313,
        "longitude": 120.63557,
        "bounds": {
          "minLatitude": 22.591766,
          "maxLatitude": 22.626859,
          "minLongitude": 120.632976,
          "maxLongitude": 120.638164
        },
        "topSchools": [
          {
            "id": "134535",
            "name": "縣立泰武國中",
            "townshipName": "泰武鄉",
            "students": 100,
            "status": "正常"
          },
          {
            "id": "134753",
            "name": "縣立萬安國小",
            "townshipName": "泰武鄉",
            "students": 80,
            "status": "正常"
          }
        ]
      },
      {
        "id": "5-wsjc8",
        "geohash": "wsjc8",
        "precision": 5,
        "count": 2,
        "totalStudents": 233,
        "latitude": 22.789357,
        "longitude": 120.612783,
        "bounds": {
          "minLatitude": 22.78771,
          "maxLatitude": 22.791003,
          "minLongitude": 120.611287,
          "maxLongitude": 120.614279
        },
        "topSchools": [
          {
            "id": "134513",
            "name": "縣立高泰國中",
            "townshipName": "高樹鄉",
            "students": 159,
            "status": "正常"
          },
          {
            "id": "134642",
            "name": "縣立泰山國小",
            "townshipName": "高樹鄉",
            "students": 74,
            "status": "正常"
          }
        ]
      },
      {
        "id": "5-wsj9x",
        "geohash": "wsj9x",
        "precision": 5,
        "count": 2,
        "totalStudents": 166,
        "latitude": 22.794612,
        "longitude": 120.568361,
        "bounds": {
          "minLatitude": 22.785583,
          "maxLatitude": 22.803642,
          "minLongitude": 120.559471,
          "maxLongitude": 120.57725
        },
        "topSchools": [
          {
            "id": "134640",
            "name": "縣立田子國小",
            "townshipName": "高樹鄉",
            "students": 102,
            "status": "正常"
          },
          {
            "id": "134641",
            "name": "縣立新南國小",
            "townshipName": "高樹鄉",
            "students": 64,
            "status": "正常"
          }
        ]
      },
      {
        "id": "5-wevvm",
        "geohash": "wevvm",
        "precision": 5,
        "count": 2,
        "totalStudents": 131,
        "latitude": 22.022399,
        "longitude": 120.838847,
        "bounds": {
          "minLatitude": 22.02029,
          "maxLatitude": 22.024508,
          "minLongitude": 120.838065,
          "maxLongitude": 120.839629
        },
        "topSchools": [
          {
            "id": "134532",
            "name": "縣立滿州國中",
            "townshipName": "滿州鄉",
            "students": 74,
            "status": "正常"
          },
          {
            "id": "134729",
            "name": "縣立滿州國小",
            "townshipName": "滿州鄉",
            "students": 57,
            "status": "正常"
          }
        ]
      },
      {
        "id": "5-wsjc9",
        "geohash": "wsjc9",
        "precision": 5,
        "count": 1,
        "totalStudents": 52,
        "latitude": 22.766405,
        "longitude": 120.644646,
        "bounds": {
          "minLatitude": 22.766405,
          "maxLatitude": 22.766405,
          "minLongitude": 120.644646,
          "maxLongitude": 120.644646
        },
        "topSchools": [
          {
            "id": "134742",
            "name": "縣立口社國小",
            "townshipName": "三地門鄉",
            "students": 52,
            "status": "正常"
          }
        ]
      },
      {
        "id": "5-wsjc3",
        "geohash": "wsjc3",
        "precision": 5,
        "count": 1,
        "totalStudents": 40,
        "latitude": 22.743544,
        "longitude": 120.639575,
        "bounds": {
          "minLatitude": 22.743544,
          "maxLatitude": 22.743544,
          "minLongitude": 120.639575,
          "maxLongitude": 120.639575
        },
        "topSchools": [
          {
            "id": "134784",
            "name": "縣立賽嘉國小",
            "townshipName": "三地門鄉",
            "students": 40,
            "status": "正常"
          }
        ]
      },
      {
        "id": "5-wevyj",
        "geohash": "wevyj",
        "precision": 5,
        "count": 1,
        "totalStudents": 68,
        "latitude": 22.176581,
        "longitude": 120.837576,
        "bounds": {
          "minLatitude": 22.176581,
          "maxLatitude": 22.176581,
          "minLongitude": 120.837576,
          "maxLongitude": 120.837576
        },
        "topSchools": [
          {
            "id": "134769",
            "name": "縣立牡丹國小",
            "townshipName": "牡丹鄉",
            "students": 68,
            "status": "正常"
          }
        ]
      },
      {
        "id": "5-wevvv",
        "geohash": "wevvv",
        "precision": 5,
        "count": 1,
        "totalStudents": 40,
        "latitude": 22.124771,
        "longitude": 120.846982,
        "bounds": {
          "minLatitude": 22.124771,
          "maxLatitude": 22.124771,
          "minLongitude": 120.846982,
          "maxLongitude": 120.846982
        },
        "topSchools": [
          {
            "id": "134768",
            "name": "縣立高士國小",
            "townshipName": "牡丹鄉",
            "students": 40,
            "status": "正常"
          }
        ]
      },
      {
        "id": "5-wsj9w",
        "geohash": "wsj9w",
        "precision": 5,
        "count": 1,
        "totalStudents": 82,
        "latitude": 22.778271,
        "longitude": 120.524508,
        "bounds": {
          "minLatitude": 22.778271,
          "maxLatitude": 22.778271,
          "minLongitude": 120.524508,
          "maxLongitude": 120.524508
        },
        "topSchools": [
          {
            "id": "134647",
            "name": "縣立載興國小",
            "townshipName": "里港鄉",
            "students": 82,
            "status": "正常"
          }
        ]
      },
      {
        "id": "5-wsj9y",
        "geohash": "wsj9y",
        "precision": 5,
        "count": 1,
        "totalStudents": 55,
        "latitude": 22.820046,
        "longitude": 120.506234,
        "bounds": {
          "minLatitude": 22.820046,
          "maxLatitude": 22.820046,
          "minLongitude": 120.506234,
          "maxLongitude": 120.506234
        },
        "topSchools": [
          {
            "id": "134649",
            "name": "縣立三和國小",
            "townshipName": "里港鄉",
            "students": 55,
            "status": "正常"
          }
        ]
      },
      {
        "id": "5-wevxq",
        "geohash": "wevxq",
        "precision": 5,
        "count": 1,
        "totalStudents": 65,
        "latitude": 22.409448,
        "longitude": 120.525932,
        "bounds": {
          "minLatitude": 22.409448,
          "maxLatitude": 22.409448,
          "minLongitude": 120.525932,
          "maxLongitude": 120.525932
        },
        "topSchools": [
          {
            "id": "134712",
            "name": "縣立塭子國小",
            "townshipName": "佳冬鄉",
            "students": 65,
            "status": "正常"
          }
        ]
      },
      {
        "id": "5-wsjb1",
        "geohash": "wsjb1",
        "precision": 5,
        "count": 1,
        "totalStudents": 127,
        "latitude": 22.52781,
        "longitude": 120.649572,
        "bounds": {
          "minLatitude": 22.52781,
          "maxLatitude": 22.52781,
          "minLongitude": 120.649572,
          "maxLongitude": 120.649572
        },
        "topSchools": [
          {
            "id": "134754",
            "name": "縣立來義國小",
            "townshipName": "來義鄉",
            "students": 127,
            "status": "正常"
          }
        ]
      },
      {
        "id": "5-wevz9",
        "geohash": "wevz9",
        "precision": 5,
        "count": 1,
        "totalStudents": 69,
        "latitude": 22.436077,
        "longitude": 120.642581,
        "bounds": {
          "minLatitude": 22.436077,
          "maxLatitude": 22.436077,
          "minLongitude": 120.642581,
          "maxLongitude": 120.642581
        },
        "topSchools": [
          {
            "id": "134757",
            "name": "縣立南和國小",
            "townshipName": "來義鄉",
            "students": 69,
            "status": "正常"
          }
        ]
      },
      {
        "id": "5-wevy4",
        "geohash": "wevy4",
        "precision": 5,
        "count": 1,
        "totalStudents": 42,
        "latitude": 22.190685,
        "longitude": 120.692378,
        "bounds": {
          "minLatitude": 22.190685,
          "maxLatitude": 22.190685,
          "minLongitude": 120.692378,
          "maxLongitude": 120.692378
        },
        "topSchools": [
          {
            "id": "134735",
            "name": "縣立楓港國小",
            "townshipName": "枋山鄉",
            "students": 42,
            "status": "正常"
          }
        ]
      },
      {
        "id": "5-wevxr",
        "geohash": "wevxr",
        "precision": 5,
        "count": 1,
        "totalStudents": 103,
        "latitude": 22.401456,
        "longitude": 120.577055,
        "bounds": {
          "minLatitude": 22.401456,
          "maxLatitude": 22.401456,
          "minLongitude": 120.577055,
          "maxLongitude": 120.577055
        },
        "topSchools": [
          {
            "id": "134684",
            "name": "縣立東海國小",
            "townshipName": "枋寮鄉",
            "students": 103,
            "status": "正常"
          }
        ]
      },
      {
        "id": "5-wevxt",
        "geohash": "wevxt",
        "precision": 5,
        "count": 1,
        "totalStudents": 42,
        "latitude": 22.425955,
        "longitude": 120.493778,
        "bounds": {
          "minLatitude": 22.425955,
          "maxLatitude": 22.425955,
          "minLongitude": 120.493778,
          "maxLongitude": 120.493778
        },
        "topSchools": [
          {
            "id": "134706",
            "name": "縣立崎峰國小",
            "townshipName": "林邊鄉",
            "students": 42,
            "status": "正常"
          }
        ]
      },
      {
        "id": "5-wsj8u",
        "geohash": "wsj8u",
        "precision": 5,
        "count": 1,
        "totalStudents": 0,
        "latitude": 22.665452,
        "longitude": 120.446685,
        "bounds": {
          "minLatitude": 22.665452,
          "maxLatitude": 22.665452,
          "minLongitude": 120.446685,
          "maxLongitude": 120.446685
        },
        "topSchools": [
          {
            "id": "134607:國小",
            "name": "縣立凌雲國小",
            "townshipName": "屏東市",
            "students": 0,
            "status": "待確認"
          }
        ]
      },
      {
        "id": "5-wevuu",
        "geohash": "wevuu",
        "precision": 5,
        "count": 1,
        "totalStudents": 106,
        "latitude": 21.943466,
        "longitude": 120.800866,
        "bounds": {
          "minLatitude": 21.943466,
          "maxLatitude": 21.943466,
          "minLongitude": 120.800866,
          "maxLongitude": 120.800866
        },
        "topSchools": [
          {
            "id": "134724",
            "name": "縣立墾丁國小",
            "townshipName": "恆春鎮",
            "students": 106,
            "status": "正常"
          }
        ]
      },
      {
        "id": "5-wevv7",
        "geohash": "wevv7",
        "precision": 5,
        "count": 1,
        "totalStudents": 62,
        "latitude": 22.023427,
        "longitude": 120.720725,
        "bounds": {
          "minLatitude": 22.023427,
          "maxLatitude": 22.023427,
          "minLongitude": 120.720725,
          "maxLongitude": 120.720725
        },
        "topSchools": [
          {
            "id": "134723",
            "name": "縣立大平國小",
            "townshipName": "恆春鎮",
            "students": 62,
            "status": "正常"
          }
        ]
      },
      {
        "id": "5-wevv4",
        "geohash": "wevv4",
        "precision": 5,
        "count": 1,
        "totalStudents": 36,
        "latitude": 21.983376,
        "longitude": 120.715561,
        "bounds": {
          "minLatitude": 21.983376,
          "maxLatitude": 21.983376,
          "minLongitude": 120.715561,
          "maxLongitude": 120.715561
        },
        "topSchools": [
          {
            "id": "134720",
            "name": "縣立山海國小",
            "townshipName": "恆春鎮",
            "students": 36,
            "status": "正常"
          }
        ]
      },
      {
        "id": "5-wevz8",
        "geohash": "wevz8",
        "precision": 5,
        "count": 1,
        "totalStudents": 100,
        "latitude": 22.427647,
        "longitude": 120.629036,
        "bounds": {
          "minLatitude": 22.427647,
          "maxLatitude": 22.427647,
          "minLongitude": 120.629036,
          "maxLongitude": 120.629036
        },
        "topSchools": [
          {
            "id": "134760",
            "name": "縣立力里國小",
            "townshipName": "春日鄉",
            "students": 100,
            "status": "正常"
          }
        ]
      },
      {
        "id": "5-wsjb3",
        "geohash": "wsjb3",
        "precision": 5,
        "count": 1,
        "totalStudents": 168,
        "latitude": 22.578446,
        "longitude": 120.6345,
        "bounds": {
          "minLatitude": 22.578446,
          "maxLatitude": 22.578446,
          "minLongitude": 120.6345,
          "maxLongitude": 120.6345
        },
        "topSchools": [
          {
            "id": "134751",
            "name": "縣立武潭國小",
            "townshipName": "泰武鄉",
            "students": 168,
            "status": "正常"
          }
        ]
      },
      {
        "id": "5-wevx4",
        "geohash": "wevx4",
        "precision": 5,
        "count": 1,
        "totalStudents": 63,
        "latitude": 22.330183,
        "longitude": 120.363204,
        "bounds": {
          "minLatitude": 22.330183,
          "maxLatitude": 22.330183,
          "minLongitude": 120.363204,
          "maxLongitude": 120.363204
        },
        "topSchools": [
          {
            "id": "134697",
            "name": "縣立天南國小",
            "townshipName": "琉球鄉",
            "students": 63,
            "status": "正常"
          }
        ]
      },
      {
        "id": "5-wsjf1",
        "geohash": "wsjf1",
        "precision": 5,
        "count": 1,
        "totalStudents": 17,
        "latitude": 22.863363,
        "longitude": 120.634247,
        "bounds": {
          "minLatitude": 22.863363,
          "maxLatitude": 22.863363,
          "minLongitude": 120.634247,
          "maxLongitude": 120.634247
        },
        "topSchools": [
          {
            "id": "134639",
            "name": "縣立新豐國小",
            "townshipName": "高樹鄉",
            "students": 17,
            "status": "正常"
          }
        ]
      },
      {
        "id": "5-wsj8h",
        "geohash": "wsj8h",
        "precision": 5,
        "count": 1,
        "totalStudents": 199,
        "latitude": 22.524052,
        "longitude": 120.451799,
        "bounds": {
          "minLatitude": 22.524052,
          "maxLatitude": 22.524052,
          "minLongitude": 120.451799,
          "maxLongitude": 120.451799
        },
        "topSchools": [
          {
            "id": "134691",
            "name": "縣立新園國小",
            "townshipName": "新園鄉",
            "students": 199,
            "status": "正常"
          }
        ]
      },
      {
        "id": "5-wevyc",
        "geohash": "wevyc",
        "precision": 5,
        "count": 1,
        "totalStudents": 68,
        "latitude": 22.304737,
        "longitude": 120.643084,
        "bounds": {
          "minLatitude": 22.304737,
          "maxLatitude": 22.304737,
          "minLongitude": 120.643084,
          "maxLongitude": 120.643084
        },
        "topSchools": [
          {
            "id": "134764",
            "name": "縣立內獅國小",
            "townshipName": "獅子鄉",
            "students": 68,
            "status": "正常"
          }
        ]
      },
      {
        "id": "5-wevy7",
        "geohash": "wevy7",
        "precision": 5,
        "count": 1,
        "totalStudents": 32,
        "latitude": 22.203351,
        "longitude": 120.751467,
        "bounds": {
          "minLatitude": 22.203351,
          "maxLatitude": 22.203351,
          "minLongitude": 120.751467,
          "maxLongitude": 120.751467
        },
        "topSchools": [
          {
            "id": "134763",
            "name": "縣立丹路國小",
            "townshipName": "獅子鄉",
            "students": 32,
            "status": "正常"
          }
        ]
      },
      {
        "id": "5-wevyk",
        "geohash": "wevyk",
        "precision": 5,
        "count": 1,
        "totalStudents": 30,
        "latitude": 22.234852,
        "longitude": 120.803101,
        "bounds": {
          "minLatitude": 22.234852,
          "maxLatitude": 22.234852,
          "minLongitude": 120.803101,
          "maxLongitude": 120.803101
        },
        "topSchools": [
          {
            "id": "134765",
            "name": "縣立草埔國小",
            "townshipName": "獅子鄉",
            "students": 30,
            "status": "正常"
          }
        ]
      },
      {
        "id": "5-wsjb2",
        "geohash": "wsjb2",
        "precision": 5,
        "count": 1,
        "totalStudents": 151,
        "latitude": 22.57164,
        "longitude": 120.595417,
        "bounds": {
          "minLatitude": 22.57164,
          "maxLatitude": 22.57164,
          "minLongitude": 120.595417,
          "maxLongitude": 120.595417
        },
        "topSchools": [
          {
            "id": "134659",
            "name": "縣立佳佐國小",
            "townshipName": "萬巒鄉",
            "students": 151,
            "status": "正常"
          }
        ]
      },
      {
        "id": "5-wevvt",
        "geohash": "wevvt",
        "precision": 5,
        "count": 1,
        "totalStudents": 45,
        "latitude": 22.075483,
        "longitude": 120.828421,
        "bounds": {
          "minLatitude": 22.075483,
          "maxLatitude": 22.075483,
          "minLongitude": 120.828421,
          "maxLongitude": 120.828421
        },
        "topSchools": [
          {
            "id": "134730",
            "name": "縣立長樂國小",
            "townshipName": "滿州鄉",
            "students": 45,
            "status": "正常"
          }
        ]
      },
      {
        "id": "5-wevvj",
        "geohash": "wevvj",
        "precision": 5,
        "count": 1,
        "totalStudents": 33,
        "latitude": 22.005651,
        "longitude": 120.817302,
        "bounds": {
          "minLatitude": 22.005651,
          "maxLatitude": 22.005651,
          "minLongitude": 120.817302,
          "maxLongitude": 120.817302
        },
        "topSchools": [
          {
            "id": "134731",
            "name": "縣立永港國小",
            "townshipName": "滿州鄉",
            "students": 33,
            "status": "正常"
          }
        ]
      },
      {
        "id": "5-wsjbc",
        "geohash": "wsjbc",
        "precision": 5,
        "count": 1,
        "totalStudents": 144,
        "latitude": 22.653338,
        "longitude": 120.630768,
        "bounds": {
          "minLatitude": 22.653338,
          "maxLatitude": 22.653338,
          "minLongitude": 120.630768,
          "maxLongitude": 120.630768
        },
        "topSchools": [
          {
            "id": "134744",
            "name": "縣立佳義國小",
            "townshipName": "瑪家鄉",
            "students": 144,
            "status": "正常"
          }
        ]
      },
      {
        "id": "5-wsj8p",
        "geohash": "wsj8p",
        "precision": 5,
        "count": 1,
        "totalStudents": 107,
        "latitude": 22.523111,
        "longitude": 120.560903,
        "bounds": {
          "minLatitude": 22.523111,
          "maxLatitude": 22.523111,
          "minLongitude": 120.560903,
          "maxLongitude": 120.560903
        },
        "topSchools": [
          {
            "id": "134656",
            "name": "縣立潮東國小",
            "townshipName": "潮州鎮",
            "students": 107,
            "status": "正常"
          }
        ]
      },
      {
        "id": "5-wsjc7",
        "geohash": "wsjc7",
        "precision": 5,
        "count": 1,
        "totalStudents": 104,
        "latitude": 22.745017,
        "longitude": 120.730976,
        "bounds": {
          "minLatitude": 22.745017,
          "maxLatitude": 22.745017,
          "minLongitude": 120.730976,
          "maxLongitude": 120.730976
        },
        "topSchools": [
          {
            "id": "134748",
            "name": "縣立霧臺國小",
            "townshipName": "霧臺鄉",
            "students": 104,
            "status": "正常"
          }
        ]
      }
    ],
    "6": [
      {
        "id": "6-wsj8yp",
        "geohash": "wsj8yp",
        "precision": 6,
        "count": 4,
        "totalStudents": 2052,
        "latitude": 22.674414,
        "longitude": 120.502112,
        "bounds": {
          "minLatitude": 22.674317,
          "maxLatitude": 22.674512,
          "minLongitude": 120.500506,
          "maxLongitude": 120.503718
        },
        "topSchools": [
          {
            "id": "131307",
            "name": "財團法人屏榮高中",
            "townshipName": "屏東市",
            "students": 1709,
            "status": "正常"
          },
          {
            "id": "131308:國中",
            "name": "私立陸興高中附設國中部",
            "townshipName": "屏東市",
            "students": 142,
            "status": "正常"
          },
          {
            "id": "131308",
            "name": "私立陸興高中",
            "townshipName": "屏東市",
            "students": 109,
            "status": "正常"
          },
          {
            "id": "131307:國中",
            "name": "私立屏榮高中附設國中",
            "townshipName": "屏東市",
            "students": 92,
            "status": "正常"
          }
        ]
      },
      {
        "id": "6-wsj9r1",
        "geohash": "wsj9r1",
        "precision": 6,
        "count": 4,
        "totalStudents": 4030,
        "latitude": 22.727184,
        "longitude": 120.543567,
        "bounds": {
          "minLatitude": 22.726824,
          "maxLatitude": 22.727304,
          "minLongitude": 120.542721,
          "maxLongitude": 120.543849
        },
        "topSchools": [
          {
            "id": "1043",
            "name": "大仁科技大學",
            "townshipName": "鹽埔鄉",
            "students": 3809,
            "status": "正常"
          },
          {
            "id": "130307:國小",
            "name": "國立屏科實驗高中附設國小部",
            "townshipName": "屏東市",
            "students": 92,
            "status": "正常"
          },
          {
            "id": "130307",
            "name": "國立屏科實驗高中",
            "townshipName": "鹽埔鄉",
            "students": 90,
            "status": "正常"
          },
          {
            "id": "130307:國中",
            "name": "國立屏科實驗高中附設國中部",
            "townshipName": "鹽埔鄉",
            "students": 39,
            "status": "正常"
          }
        ]
      },
      {
        "id": "6-wsj8x6",
        "geohash": "wsj8x6",
        "precision": 6,
        "count": 3,
        "totalStudents": 5617,
        "latitude": 22.601863,
        "longitude": 120.559563,
        "bounds": {
          "minLatitude": 22.601107,
          "maxLatitude": 22.603376,
          "minLongitude": 120.559172,
          "maxLongitude": 120.560344
        },
        "topSchools": [
          {
            "id": "1064",
            "name": "美和科技大學",
            "townshipName": "內埔鄉",
            "students": 4460,
            "status": "正常"
          },
          {
            "id": "131311:國中",
            "name": "私立美和高中附設國中部",
            "townshipName": "內埔鄉",
            "students": 673,
            "status": "正常"
          },
          {
            "id": "131311",
            "name": "私立美和高中",
            "townshipName": "內埔鄉",
            "students": 484,
            "status": "正常"
          }
        ]
      },
      {
        "id": "6-wevxv1",
        "geohash": "wevxv1",
        "precision": 6,
        "count": 3,
        "totalStudents": 1791,
        "latitude": 22.464291,
        "longitude": 120.457373,
        "bounds": {
          "minLatitude": 22.46241,
          "maxLatitude": 22.465231,
          "minLongitude": 120.455438,
          "maxLongitude": 120.461243
        },
        "topSchools": [
          {
            "id": "134324:國中",
            "name": "縣立東港高中附設國中部",
            "townshipName": "東港鎮",
            "students": 1010,
            "status": "正常"
          },
          {
            "id": "134324",
            "name": "縣立東港高中",
            "townshipName": "東港鎮",
            "students": 602,
            "status": "正常"
          },
          {
            "id": "134689",
            "name": "縣立以栗國小",
            "townshipName": "東港鎮",
            "students": 179,
            "status": "正常"
          }
        ]
      },
      {
        "id": "6-wsj9p1",
        "geohash": "wsj9p1",
        "precision": 6,
        "count": 3,
        "totalStudents": 59,
        "latitude": 22.681955,
        "longitude": 120.546812,
        "bounds": {
          "minLatitude": 22.681928,
          "maxLatitude": 22.681969,
          "minLongitude": 120.546795,
          "maxLongitude": 120.54682
        },
        "topSchools": [
          {
            "id": "131601",
            "name": "私立崇華國小",
            "townshipName": "長治鄉",
            "students": 50,
            "status": "正常"
          },
          {
            "id": "131302:國中",
            "name": "私立崇華國中附設國中",
            "townshipName": "長治鄉",
            "students": 6,
            "status": "正常"
          },
          {
            "id": "131302",
            "name": "屏東縣崇華高中",
            "townshipName": "長治鄉",
            "students": 3,
            "status": "正常"
          }
        ]
      },
      {
        "id": "6-wsj8vt",
        "geohash": "wsj8vt",
        "precision": 6,
        "count": 3,
        "totalStudents": 3427,
        "latitude": 22.662369,
        "longitude": 120.483937,
        "bounds": {
          "minLatitude": 22.659709,
          "maxLatitude": 22.664767,
          "minLongitude": 120.479644,
          "maxLongitude": 120.486492
        },
        "topSchools": [
          {
            "id": "130403",
            "name": "國立屏東高工",
            "townshipName": "屏東市",
            "students": 1648,
            "status": "正常"
          },
          {
            "id": "134606",
            "name": "縣立鶴聲國小",
            "townshipName": "屏東市",
            "students": 1232,
            "status": "正常"
          },
          {
            "id": "134614",
            "name": "縣立復興國小",
            "townshipName": "屏東市",
            "students": 547,
            "status": "正常"
          }
        ]
      },
      {
        "id": "6-wsj8vz",
        "geohash": "wsj8vz",
        "precision": 6,
        "count": 3,
        "totalStudents": 2717,
        "latitude": 22.672994,
        "longitude": 120.492791,
        "bounds": {
          "minLatitude": 22.670526,
          "maxLatitude": 22.674694,
          "minLongitude": 120.48836,
          "maxLongitude": 120.495833
        },
        "topSchools": [
          {
            "id": "130302",
            "name": "國立屏東女中",
            "townshipName": "屏東市",
            "students": 1568,
            "status": "正常"
          },
          {
            "id": "134601",
            "name": "縣立中正國小",
            "townshipName": "屏東市",
            "students": 784,
            "status": "正常"
          },
          {
            "id": "134612",
            "name": "縣立民和國小",
            "townshipName": "屏東市",
            "students": 365,
            "status": "正常"
          }
        ]
      },
      {
        "id": "6-wsj9j8",
        "geohash": "wsj9j8",
        "precision": 6,
        "count": 3,
        "totalStudents": 1835,
        "latitude": 22.679093,
        "longitude": 120.479397,
        "bounds": {
          "minLatitude": 22.678023,
          "maxLatitude": 22.681232,
          "minLongitude": 120.476273,
          "maxLongitude": 120.485644
        },
        "topSchools": [
          {
            "id": "134304:國中",
            "name": "縣立大同高中附設國中部",
            "townshipName": "屏東市",
            "students": 679,
            "status": "正常"
          },
          {
            "id": "134608",
            "name": "縣立勝利國小",
            "townshipName": "屏東市",
            "students": 616,
            "status": "正常"
          },
          {
            "id": "134304",
            "name": "縣立大同高中",
            "townshipName": "屏東市",
            "students": 540,
            "status": "正常"
          }
        ]
      },
      {
        "id": "6-wevvdf",
        "geohash": "wevvdf",
        "precision": 6,
        "count": 2,
        "totalStudents": 419,
        "latitude": 22.074143,
        "longitude": 120.715769,
        "bounds": {
          "minLatitude": 22.073237,
          "maxLatitude": 22.07505,
          "minLongitude": 120.714661,
          "maxLongitude": 120.716878
        },
        "topSchools": [
          {
            "id": "134725",
            "name": "縣立車城國小",
            "townshipName": "車城鄉",
            "students": 221,
            "status": "正常"
          },
          {
            "id": "134530",
            "name": "縣立車城國中",
            "townshipName": "車城鄉",
            "students": 198,
            "status": "正常"
          }
        ]
      },
      {
        "id": "6-wsj9tc",
        "geohash": "wsj9tc",
        "precision": 6,
        "count": 2,
        "totalStudents": 985,
        "latitude": 22.772612,
        "longitude": 120.493897,
        "bounds": {
          "minLatitude": 22.771169,
          "maxLatitude": 22.774054,
          "minLongitude": 120.490956,
          "maxLongitude": 120.496838
        },
        "topSchools": [
          {
            "id": "134510",
            "name": "縣立里港國中",
            "townshipName": "里港鄉",
            "students": 516,
            "status": "正常"
          },
          {
            "id": "134781",
            "name": "縣立玉田國小",
            "townshipName": "里港鄉",
            "students": 469,
            "status": "正常"
          }
        ]
      },
      {
        "id": "6-wevxxd",
        "geohash": "wevxxd",
        "precision": 6,
        "count": 2,
        "totalStudents": 264,
        "latitude": 22.427625,
        "longitude": 120.565967,
        "bounds": {
          "minLatitude": 22.426773,
          "maxLatitude": 22.428477,
          "minLongitude": 120.565181,
          "maxLongitude": 120.566753
        },
        "topSchools": [
          {
            "id": "134716",
            "name": "縣立玉光國小",
            "townshipName": "佳冬鄉",
            "students": 134,
            "status": "正常"
          },
          {
            "id": "134527",
            "name": "縣立佳冬國中",
            "townshipName": "佳冬鄉",
            "students": 130,
            "status": "正常"
          }
        ]
      },
      {
        "id": "6-wsjb0u",
        "geohash": "wsjb0u",
        "precision": 6,
        "count": 2,
        "totalStudents": 340,
        "latitude": 22.525599,
        "longitude": 120.62936,
        "bounds": {
          "minLatitude": 22.525599,
          "maxLatitude": 22.525599,
          "minLongitude": 120.62936,
          "maxLongitude": 120.62936
        },
        "topSchools": [
          {
            "id": "134334:國中",
            "name": "縣立來義中學附設國中部",
            "townshipName": "來義鄉",
            "students": 204,
            "status": "正常"
          },
          {
            "id": "134334",
            "name": "縣立來義高中",
            "townshipName": "來義鄉",
            "students": 136,
            "status": "正常"
          }
        ]
      },
      {
        "id": "6-wevxv4",
        "geohash": "wevxv4",
        "precision": 6,
        "count": 2,
        "totalStudents": 1163,
        "latitude": 22.469555,
        "longitude": 120.457335,
        "bounds": {
          "minLatitude": 22.468436,
          "maxLatitude": 22.470675,
          "minLongitude": 120.454724,
          "maxLongitude": 120.459947
        },
        "topSchools": [
          {
            "id": "134783",
            "name": "縣立東光國小",
            "townshipName": "東港鎮",
            "students": 705,
            "status": "正常"
          },
          {
            "id": "134686",
            "name": "縣立東港國小",
            "townshipName": "東港鎮",
            "students": 458,
            "status": "正常"
          }
        ]
      },
      {
        "id": "6-wevxu9",
        "geohash": "wevxu9",
        "precision": 6,
        "count": 2,
        "totalStudents": 690,
        "latitude": 22.46492,
        "longitude": 120.442307,
        "bounds": {
          "minLatitude": 22.464485,
          "maxLatitude": 22.465354,
          "minLongitude": 120.442165,
          "maxLongitude": 120.442449
        },
        "topSchools": [
          {
            "id": "130410",
            "name": "國立東港海事",
            "townshipName": "東港鎮",
            "students": 615,
            "status": "正常"
          },
          {
            "id": "134688",
            "name": "縣立海濱國小",
            "townshipName": "東港鎮",
            "students": 75,
            "status": "正常"
          }
        ]
      },
      {
        "id": "6-wevz20",
        "geohash": "wevz20",
        "precision": 6,
        "count": 2,
        "totalStudents": 746,
        "latitude": 22.371085,
        "longitude": 120.590665,
        "bounds": {
          "minLatitude": 22.371085,
          "maxLatitude": 22.371085,
          "minLongitude": 120.590665,
          "maxLongitude": 120.590665
        },
        "topSchools": [
          {
            "id": "134321:國中",
            "name": "縣立枋寮高中附設國中部",
            "townshipName": "枋寮鄉",
            "students": 496,
            "status": "正常"
          },
          {
            "id": "134321",
            "name": "縣立枋寮高中",
            "townshipName": "枋寮鄉",
            "students": 250,
            "status": "正常"
          }
        ]
      },
      {
        "id": "6-wevxw7",
        "geohash": "wevxw7",
        "precision": 6,
        "count": 2,
        "totalStudents": 586,
        "latitude": 22.432583,
        "longitude": 120.514466,
        "bounds": {
          "minLatitude": 22.432512,
          "maxLatitude": 22.432654,
          "minLongitude": 120.510462,
          "maxLongitude": 120.51847
        },
        "topSchools": [
          {
            "id": "134525",
            "name": "縣立林邊國中",
            "townshipName": "林邊鄉",
            "students": 364,
            "status": "正常"
          },
          {
            "id": "134703",
            "name": "縣立林邊國小",
            "townshipName": "林邊鄉",
            "students": 222,
            "status": "正常"
          }
        ]
      },
      {
        "id": "6-wevxyj",
        "geohash": "wevxyj",
        "precision": 6,
        "count": 2,
        "totalStudents": 193,
        "latitude": 22.48787,
        "longitude": 120.506237,
        "bounds": {
          "minLatitude": 22.487486,
          "maxLatitude": 22.488255,
          "minLongitude": 120.505407,
          "maxLongitude": 120.507067
        },
        "topSchools": [
          {
            "id": "134526",
            "name": "縣立南州國中",
            "townshipName": "南州鄉",
            "students": 98,
            "status": "正常"
          },
          {
            "id": "134708",
            "name": "縣立南州國小",
            "townshipName": "南州鄉",
            "students": 95,
            "status": "正常"
          }
        ]
      },
      {
        "id": "6-wsj9jb",
        "geohash": "wsj9jb",
        "precision": 6,
        "count": 2,
        "totalStudents": 3013,
        "latitude": 22.678242,
        "longitude": 120.496137,
        "bounds": {
          "minLatitude": 22.676618,
          "maxLatitude": 22.679866,
          "minLongitude": 120.49471,
          "maxLongitude": 120.497564
        },
        "topSchools": [
          {
            "id": "134501",
            "name": "縣立明正國中",
            "townshipName": "屏東市",
            "students": 1695,
            "status": "正常"
          },
          {
            "id": "134602",
            "name": "縣立仁愛國小",
            "townshipName": "屏東市",
            "students": 1318,
            "status": "正常"
          }
        ]
      },
      {
        "id": "6-wsj9jc",
        "geohash": "wsj9jc",
        "precision": 6,
        "count": 2,
        "totalStudents": 2127,
        "latitude": 22.68597,
        "longitude": 120.490094,
        "bounds": {
          "minLatitude": 22.685297,
          "maxLatitude": 22.686644,
          "minLongitude": 120.488266,
          "maxLongitude": 120.491921
        },
        "topSchools": [
          {
            "id": "130305",
            "name": "國立屏東高中",
            "townshipName": "屏東市",
            "students": 1431,
            "status": "正常"
          },
          {
            "id": "134772",
            "name": "縣立信義國小",
            "townshipName": "屏東市",
            "students": 696,
            "status": "正常"
          }
        ]
      },
      {
        "id": "6-wsj8v9",
        "geohash": "wsj8v9",
        "precision": 6,
        "count": 2,
        "totalStudents": 590,
        "latitude": 22.639263,
        "longitude": 120.483095,
        "bounds": {
          "minLatitude": 22.638053,
          "maxLatitude": 22.640473,
          "minLongitude": 120.482395,
          "maxLongitude": 120.483795
        },
        "topSchools": [
          {
            "id": "134604",
            "name": "縣立公館國小",
            "townshipName": "屏東市",
            "students": 359,
            "status": "正常"
          },
          {
            "id": "134503",
            "name": "縣立公正國中",
            "townshipName": "屏東市",
            "students": 231,
            "status": "正常"
          }
        ]
      },
      {
        "id": "6-wsj8yk",
        "geohash": "wsj8yk",
        "precision": 6,
        "count": 2,
        "totalStudents": 393,
        "latitude": 22.658948,
        "longitude": 120.511595,
        "bounds": {
          "minLatitude": 22.658865,
          "maxLatitude": 22.65903,
          "minLongitude": 120.509216,
          "maxLongitude": 120.513975
        },
        "topSchools": [
          {
            "id": "131409",
            "name": "私立民生家商",
            "townshipName": "屏東市",
            "students": 267,
            "status": "正常"
          },
          {
            "id": "134609",
            "name": "縣立歸來國小",
            "townshipName": "屏東市",
            "students": 126,
            "status": "正常"
          }
        ]
      },
      {
        "id": "6-wsj8vw",
        "geohash": "wsj8vw",
        "precision": 6,
        "count": 2,
        "totalStudents": 237,
        "latitude": 22.665762,
        "longitude": 120.481674,
        "bounds": {
          "minLatitude": 22.665427,
          "maxLatitude": 22.666098,
          "minLongitude": 120.476722,
          "maxLongitude": 120.486627
        },
        "topSchools": [
          {
            "id": "134613",
            "name": "縣立建國國小",
            "townshipName": "屏東市",
            "students": 138,
            "status": "正常"
          },
          {
            "id": "134605",
            "name": "縣立大同國小",
            "townshipName": "屏東市",
            "students": 99,
            "status": "正常"
          }
        ]
      },
      {
        "id": "6-wevv5w",
        "geohash": "wevv5w",
        "precision": 6,
        "count": 2,
        "totalStudents": 1054,
        "latitude": 22.007518,
        "longitude": 120.745432,
        "bounds": {
          "minLatitude": 22.006382,
          "maxLatitude": 22.008654,
          "minLongitude": 120.744218,
          "maxLongitude": 120.746647
        },
        "topSchools": [
          {
            "id": "134717",
            "name": "縣立恆春國小",
            "townshipName": "恆春鎮",
            "students": 604,
            "status": "正常"
          },
          {
            "id": "134718",
            "name": "縣立僑勇國小",
            "townshipName": "恆春鎮",
            "students": 450,
            "status": "正常"
          }
        ]
      },
      {
        "id": "6-wsj8n6",
        "geohash": "wsj8n6",
        "precision": 6,
        "count": 2,
        "totalStudents": 1162,
        "latitude": 22.513739,
        "longitude": 120.515059,
        "bounds": {
          "minLatitude": 22.51342,
          "maxLatitude": 22.514059,
          "minLongitude": 120.511723,
          "maxLongitude": 120.518395
        },
        "topSchools": [
          {
            "id": "131501",
            "name": "私立南榮國中(代用)",
            "townshipName": "崁頂鄉",
            "students": 1052,
            "status": "正常"
          },
          {
            "id": "134700",
            "name": "縣立崁頂國小",
            "townshipName": "崁頂鄉",
            "students": 110,
            "status": "正常"
          }
        ]
      },
      {
        "id": "6-wsjc8s",
        "geohash": "wsjc8s",
        "precision": 6,
        "count": 2,
        "totalStudents": 233,
        "latitude": 22.789357,
        "longitude": 120.612783,
        "bounds": {
          "minLatitude": 22.78771,
          "maxLatitude": 22.791003,
          "minLongitude": 120.611287,
          "maxLongitude": 120.614279
        },
        "topSchools": [
          {
            "id": "134513",
            "name": "縣立高泰國中",
            "townshipName": "高樹鄉",
            "students": 159,
            "status": "正常"
          },
          {
            "id": "134642",
            "name": "縣立泰山國小",
            "townshipName": "高樹鄉",
            "students": 74,
            "status": "正常"
          }
        ]
      },
      {
        "id": "6-wsjc2g",
        "geohash": "wsjc2g",
        "precision": 6,
        "count": 2,
        "totalStudents": 64,
        "latitude": 22.739325,
        "longitude": 120.620677,
        "bounds": {
          "minLatitude": 22.739253,
          "maxLatitude": 22.739397,
          "minLongitude": 120.620656,
          "maxLongitude": 120.620698
        },
        "topSchools": [
          {
            "id": "134644",
            "name": "縣立大路關國小",
            "townshipName": "高樹鄉",
            "students": 64,
            "status": "正常"
          },
          {
            "id": "134543:國中",
            "name": "縣立大路關國中(小)",
            "townshipName": "高樹鄉",
            "students": 0,
            "status": "待確認"
          }
        ]
      },
      {
        "id": "6-wsj8m0",
        "geohash": "wsj8m0",
        "precision": 6,
        "count": 2,
        "totalStudents": 626,
        "latitude": 22.544761,
        "longitude": 120.461027,
        "bounds": {
          "minLatitude": 22.544298,
          "maxLatitude": 22.545223,
          "minLongitude": 120.46099,
          "maxLongitude": 120.461063
        },
        "topSchools": [
          {
            "id": "134523",
            "name": "縣立新園國中",
            "townshipName": "新園鄉",
            "students": 324,
            "status": "正常"
          },
          {
            "id": "134692",
            "name": "縣立仙吉國小",
            "townshipName": "新園鄉",
            "students": 302,
            "status": "正常"
          }
        ]
      },
      {
        "id": "6-wsj8tc",
        "geohash": "wsj8tc",
        "precision": 6,
        "count": 2,
        "totalStudents": 1163,
        "latitude": 22.595841,
        "longitude": 120.489046,
        "bounds": {
          "minLatitude": 22.594942,
          "maxLatitude": 22.596741,
          "minLongitude": 120.488112,
          "maxLongitude": 120.48998
        },
        "topSchools": [
          {
            "id": "134522",
            "name": "縣立萬丹國中",
            "townshipName": "萬丹鄉",
            "students": 641,
            "status": "正常"
          },
          {
            "id": "134775",
            "name": "縣立四維國小",
            "townshipName": "萬丹鄉",
            "students": 522,
            "status": "正常"
          }
        ]
      },
      {
        "id": "6-wsj8r0",
        "geohash": "wsj8r0",
        "precision": 6,
        "count": 2,
        "totalStudents": 1970,
        "latitude": 22.548416,
        "longitude": 120.544355,
        "bounds": {
          "minLatitude": 22.547664,
          "maxLatitude": 22.549167,
          "minLongitude": 120.543356,
          "maxLongitude": 120.545354
        },
        "topSchools": [
          {
            "id": "130306",
            "name": "國立潮州高中",
            "townshipName": "潮州鎮",
            "students": 1306,
            "status": "正常"
          },
          {
            "id": "134653",
            "name": "縣立光華國小",
            "townshipName": "潮州鎮",
            "students": 664,
            "status": "正常"
          }
        ]
      },
      {
        "id": "6-wsj9m9",
        "geohash": "wsj9m9",
        "precision": 6,
        "count": 1,
        "totalStudents": 483,
        "latitude": 22.726705,
        "longitude": 120.486276,
        "bounds": {
          "minLatitude": 22.726705,
          "maxLatitude": 22.726705,
          "minLongitude": 120.486276,
          "maxLongitude": 120.486276
        },
        "topSchools": [
          {
            "id": "134625",
            "name": "縣立九如國小",
            "townshipName": "九如鄉",
            "students": 483,
            "status": "正常"
          }
        ]
      },
      {
        "id": "6-wsj9jx",
        "geohash": "wsj9jx",
        "precision": 6,
        "count": 1,
        "totalStudents": 336,
        "latitude": 22.717798,
        "longitude": 120.48601,
        "bounds": {
          "minLatitude": 22.717798,
          "maxLatitude": 22.717798,
          "minLongitude": 120.48601,
          "maxLongitude": 120.48601
        },
        "topSchools": [
          {
            "id": "134509",
            "name": "縣立九如國中",
            "townshipName": "九如鄉",
            "students": 336,
            "status": "正常"
          }
        ]
      },
      {
        "id": "6-wsj9qn",
        "geohash": "wsj9qn",
        "precision": 6,
        "count": 1,
        "totalStudents": 111,
        "latitude": 22.755635,
        "longitude": 120.500703,
        "bounds": {
          "minLatitude": 22.755635,
          "maxLatitude": 22.755635,
          "minLongitude": 120.500703,
          "maxLongitude": 120.500703
        },
        "topSchools": [
          {
            "id": "134626",
            "name": "縣立後庄國小",
            "townshipName": "九如鄉",
            "students": 111,
            "status": "正常"
          }
        ]
      },
      {
        "id": "6-wsj9q0",
        "geohash": "wsj9q0",
        "precision": 6,
        "count": 1,
        "totalStudents": 90,
        "latitude": 22.724027,
        "longitude": 120.49895,
        "bounds": {
          "minLatitude": 22.724027,
          "maxLatitude": 22.724027,
          "minLongitude": 120.49895,
          "maxLongitude": 120.49895
        },
        "topSchools": [
          {
            "id": "134627",
            "name": "縣立惠農國小",
            "townshipName": "九如鄉",
            "students": 90,
            "status": "正常"
          }
        ]
      },
      {
        "id": "6-wsj9mt",
        "geohash": "wsj9mt",
        "precision": 6,
        "count": 1,
        "totalStudents": 76,
        "latitude": 22.748687,
        "longitude": 120.485416,
        "bounds": {
          "minLatitude": 22.748687,
          "maxLatitude": 22.748687,
          "minLongitude": 120.485416,
          "maxLongitude": 120.485416
        },
        "topSchools": [
          {
            "id": "134771",
            "name": "縣立三多國小",
            "townshipName": "九如鄉",
            "students": 76,
            "status": "正常"
          }
        ]
      },
      {
        "id": "6-wsjc1x",
        "geohash": "wsjc1x",
        "precision": 6,
        "count": 1,
        "totalStudents": 126,
        "latitude": 22.715005,
        "longitude": 120.654465,
        "bounds": {
          "minLatitude": 22.715005,
          "maxLatitude": 22.715005,
          "minLongitude": 120.654465,
          "maxLongitude": 120.654465
        },
        "topSchools": [
          {
            "id": "134737",
            "name": "縣立地磨兒國小",
            "townshipName": "三地門鄉",
            "students": 126,
            "status": "正常"
          }
        ]
      },
      {
        "id": "6-wsjc92",
        "geohash": "wsjc92",
        "precision": 6,
        "count": 1,
        "totalStudents": 52,
        "latitude": 22.766405,
        "longitude": 120.644646,
        "bounds": {
          "minLatitude": 22.766405,
          "maxLatitude": 22.766405,
          "minLongitude": 120.644646,
          "maxLongitude": 120.644646
        },
        "topSchools": [
          {
            "id": "134742",
            "name": "縣立口社國小",
            "townshipName": "三地門鄉",
            "students": 52,
            "status": "正常"
          }
        ]
      },
      {
        "id": "6-wsjcc3",
        "geohash": "wsjcc3",
        "precision": 6,
        "count": 1,
        "totalStudents": 49,
        "latitude": 22.817009,
        "longitude": 120.641332,
        "bounds": {
          "minLatitude": 22.817009,
          "maxLatitude": 22.817009,
          "minLongitude": 120.641332,
          "maxLongitude": 120.641332
        },
        "topSchools": [
          {
            "id": "134740",
            "name": "縣立青山國小",
            "townshipName": "三地門鄉",
            "students": 49,
            "status": "正常"
          }
        ]
      },
      {
        "id": "6-wsjc3h",
        "geohash": "wsjc3h",
        "precision": 6,
        "count": 1,
        "totalStudents": 40,
        "latitude": 22.743544,
        "longitude": 120.639575,
        "bounds": {
          "minLatitude": 22.743544,
          "maxLatitude": 22.743544,
          "minLongitude": 120.639575,
          "maxLongitude": 120.639575
        },
        "topSchools": [
          {
            "id": "134784",
            "name": "縣立賽嘉國小",
            "townshipName": "三地門鄉",
            "students": 40,
            "status": "正常"
          }
        ]
      },
      {
        "id": "6-wsjccj",
        "geohash": "wsjccj",
        "precision": 6,
        "count": 1,
        "totalStudents": 37,
        "latitude": 22.838275,
        "longitude": 120.639277,
        "bounds": {
          "minLatitude": 22.838275,
          "maxLatitude": 22.838275,
          "minLongitude": 120.639277,
          "maxLongitude": 120.639277
        },
        "topSchools": [
          {
            "id": "134741",
            "name": "縣立青葉國小",
            "townshipName": "三地門鄉",
            "students": 37,
            "status": "正常"
          }
        ]
      },
      {
        "id": "6-wsjbbd",
        "geohash": "wsjbbd",
        "precision": 6,
        "count": 1,
        "totalStudents": 10003,
        "latitude": 22.643306,
        "longitude": 120.609986,
        "bounds": {
          "minLatitude": 22.643306,
          "maxLatitude": 22.643306,
          "minLongitude": 120.609986,
          "maxLongitude": 120.609986
        },
        "topSchools": [
          {
            "id": "0024",
            "name": "國立屏東科技大學",
            "townshipName": "內埔鄉",
            "students": 10003,
            "status": "正常"
          }
        ]
      },
      {
        "id": "6-wsj8xe",
        "geohash": "wsj8xe",
        "precision": 6,
        "count": 1,
        "totalStudents": 522,
        "latitude": 22.609711,
        "longitude": 120.566455,
        "bounds": {
          "minLatitude": 22.609711,
          "maxLatitude": 22.609711,
          "minLongitude": 120.566455,
          "maxLongitude": 120.566455
        },
        "topSchools": [
          {
            "id": "134662",
            "name": "縣立內埔國小",
            "townshipName": "內埔鄉",
            "students": 522,
            "status": "正常"
          }
        ]
      },
      {
        "id": "6-wsj8xm",
        "geohash": "wsj8xm",
        "precision": 6,
        "count": 1,
        "totalStudents": 479,
        "latitude": 22.615954,
        "longitude": 120.562913,
        "bounds": {
          "minLatitude": 22.615954,
          "maxLatitude": 22.615954,
          "minLongitude": 120.562913,
          "maxLongitude": 120.562913
        },
        "topSchools": [
          {
            "id": "134776",
            "name": "縣立東寧國小",
            "townshipName": "內埔鄉",
            "students": 479,
            "status": "正常"
          }
        ]
      },
      {
        "id": "6-wsjc1q",
        "geohash": "wsjc1q",
        "precision": 6,
        "count": 1,
        "totalStudents": 464,
        "latitude": 22.70914,
        "longitude": 120.642567,
        "bounds": {
          "minLatitude": 22.70914,
          "maxLatitude": 22.70914,
          "minLongitude": 120.642567,
          "maxLongitude": 120.642567
        },
        "topSchools": [
          {
            "id": "130401",
            "name": "國立內埔農工",
            "townshipName": "內埔鄉",
            "students": 464,
            "status": "正常"
          }
        ]
      },
      {
        "id": "6-wsj8xs",
        "geohash": "wsj8xs",
        "precision": 6,
        "count": 1,
        "totalStudents": 321,
        "latitude": 22.611351,
        "longitude": 120.570544,
        "bounds": {
          "minLatitude": 22.611351,
          "maxLatitude": 22.611351,
          "minLongitude": 120.570544,
          "maxLongitude": 120.570544
        },
        "topSchools": [
          {
            "id": "134514",
            "name": "縣立內埔國中",
            "townshipName": "內埔鄉",
            "students": 321,
            "status": "正常"
          }
        ]
      },
      {
        "id": "6-wsj8wz",
        "geohash": "wsj8wz",
        "precision": 6,
        "count": 1,
        "totalStudents": 308,
        "latitude": 22.626578,
        "longitude": 120.540595,
        "bounds": {
          "minLatitude": 22.626578,
          "maxLatitude": 22.626578,
          "minLongitude": 120.540595,
          "maxLongitude": 120.540595
        },
        "topSchools": [
          {
            "id": "134672",
            "name": "縣立豐田國小",
            "townshipName": "內埔鄉",
            "students": 308,
            "status": "正常"
          }
        ]
      },
      {
        "id": "6-wsjc04",
        "geohash": "wsjc04",
        "precision": 6,
        "count": 1,
        "totalStudents": 285,
        "latitude": 22.687354,
        "longitude": 120.59672,
        "bounds": {
          "minLatitude": 22.687354,
          "maxLatitude": 22.687354,
          "minLongitude": 120.59672,
          "maxLongitude": 120.59672
        },
        "topSchools": [
          {
            "id": "134668",
            "name": "縣立黎明國小",
            "townshipName": "內埔鄉",
            "students": 285,
            "status": "正常"
          }
        ]
      },
      {
        "id": "6-wsjc02",
        "geohash": "wsjc02",
        "precision": 6,
        "count": 1,
        "totalStudents": 236,
        "latitude": 22.678545,
        "longitude": 120.602151,
        "bounds": {
          "minLatitude": 22.678545,
          "maxLatitude": 22.678545,
          "minLongitude": 120.602151,
          "maxLongitude": 120.602151
        },
        "topSchools": [
          {
            "id": "134515",
            "name": "縣立崇文國中",
            "townshipName": "內埔鄉",
            "students": 236,
            "status": "正常"
          }
        ]
      },
      {
        "id": "6-wsjbbq",
        "geohash": "wsjbbq",
        "precision": 6,
        "count": 1,
        "totalStudents": 209,
        "latitude": 22.666852,
        "longitude": 120.600325,
        "bounds": {
          "minLatitude": 22.666852,
          "maxLatitude": 22.666852,
          "minLongitude": 120.600325,
          "maxLongitude": 120.600325
        },
        "topSchools": [
          {
            "id": "134665",
            "name": "縣立崇文國小",
            "townshipName": "內埔鄉",
            "students": 209,
            "status": "正常"
          }
        ]
      },
      {
        "id": "6-wsj8wv",
        "geohash": "wsj8wv",
        "precision": 6,
        "count": 1,
        "totalStudents": 137,
        "latitude": 22.615392,
        "longitude": 120.540548,
        "bounds": {
          "minLatitude": 22.615392,
          "maxLatitude": 22.615392,
          "minLongitude": 120.540548,
          "maxLongitude": 120.540548
        },
        "topSchools": [
          {
            "id": "134673",
            "name": "縣立富田國小",
            "townshipName": "內埔鄉",
            "students": 137,
            "status": "正常"
          }
        ]
      },
      {
        "id": "6-wsj8z8",
        "geohash": "wsj8z8",
        "precision": 6,
        "count": 1,
        "totalStudents": 88,
        "latitude": 22.637131,
        "longitude": 120.574214,
        "bounds": {
          "minLatitude": 22.637131,
          "maxLatitude": 22.637131,
          "minLongitude": 120.574214,
          "maxLongitude": 120.574214
        },
        "topSchools": [
          {
            "id": "134671",
            "name": "縣立東勢國小",
            "townshipName": "內埔鄉",
            "students": 88,
            "status": "正常"
          }
        ]
      },
      {
        "id": "6-wsjbbn",
        "geohash": "wsjbbn",
        "precision": 6,
        "count": 1,
        "totalStudents": 83,
        "latitude": 22.667213,
        "longitude": 120.590732,
        "bounds": {
          "minLatitude": 22.667213,
          "maxLatitude": 22.667213,
          "minLongitude": 120.590732,
          "maxLongitude": 120.590732
        },
        "topSchools": [
          {
            "id": "134666",
            "name": "縣立新生國小",
            "townshipName": "內埔鄉",
            "students": 83,
            "status": "正常"
          }
        ]
      },