{
  "generatedAt": "2026-03-17T13:50:49.126Z",
  "county": {
    "id": "臺南市",
    "countyCode": "67000",
    "legacyCountyId": "臺南市",
    "name": "臺南市",
    "shortLabel": "臺南",
    "region": "南部"
  },
  "precisions": {
    "5": [
      {
        "id": "5-wsj6z",
        "geohash": "wsj6z",
        "precision": 5,
        "count": 44,
        "totalStudents": 85197,
        "latitude": 23.000239,
        "longitude": 120.214582,
        "bounds": {
          "minLatitude": 22.984088,
          "maxLatitude": 23.022424,
          "minLongitude": 120.193303,
          "maxLongitude": 120.233433
        },
        "topSchools": [
          {
            "id": "0005",
            "name": "國立成功大學",
            "townshipName": "東區",
            "students": 23485,
            "status": "正常"
          },
          {
            "id": "1023",
            "name": "南臺科技大學",
            "townshipName": "永康區",
            "students": 14465,
            "status": "正常"
          },
          {
            "id": "0036",
            "name": "國立臺南大學",
            "townshipName": "中西區",
            "students": 5976,
            "status": "正常"
          },
          {
            "id": "213501",
            "name": "市立後甲國中",
            "townshipName": "東區",
            "students": 2684,
            "status": "正常"
          }
        ]
      },
      {
        "id": "5-wsj6x",
        "geohash": "wsj6x",
        "precision": 5,
        "count": 16,
        "totalStudents": 15437,
        "latitude": 22.974273,
        "longitude": 120.213414,
        "bounds": {
          "minLatitude": 22.945459,
          "maxLatitude": 22.981606,
          "minLongitude": 120.196323,
          "maxLongitude": 120.230567
        },
        "topSchools": [
          {
            "id": "213640",
            "name": "市立崇明國小",
            "townshipName": "東區",
            "students": 1975,
            "status": "正常"
          },
          {
            "id": "210408",
            "name": "國立臺南高商",
            "townshipName": "南區",
            "students": 1725,
            "status": "正常"
          },
          {
            "id": "210309",
            "name": "國立家齊高中",
            "townshipName": "中西區",
            "students": 1709,
            "status": "正常"
          },
          {
            "id": "213518",
            "name": "市立崇明國中",
            "townshipName": "東區",
            "students": 1650,
            "status": "正常"
          }
        ]
      },
      {
        "id": "5-wsjdb",
        "geohash": "wsjdb",
        "precision": 5,
        "count": 15,
        "totalStudents": 21908,
        "latitude": 23.006835,
        "longitude": 120.254286,
        "bounds": {
          "minLatitude": 22.989685,
          "maxLatitude": 23.026035,
          "minLongitude": 120.236993,
          "maxLongitude": 120.27595
        },
        "topSchools": [
          {
            "id": "1024",
            "name": "崑山科技大學",
            "townshipName": "永康區",
            "students": 7916,
            "status": "正常"
          },
          {
            "id": "114623",
            "name": "市立永康國小",
            "townshipName": "永康區",
            "students": 2207,
            "status": "正常"
          },
          {
            "id": "114782",
            "name": "市立永信國小",
            "townshipName": "永康區",
            "students": 1820,
            "status": "正常"
          },
          {
            "id": "114624",
            "name": "市立大灣國小",
            "townshipName": "永康區",
            "students": 1547,
            "status": "正常"
          }
        ]
      },
      {
        "id": "5-wsj6y",
        "geohash": "wsj6y",
        "precision": 5,
        "count": 15,
        "totalStudents": 11429,
        "latitude": 22.999304,
        "longitude": 120.17485,
        "bounds": {
          "minLatitude": 22.986916,
          "maxLatitude": 23.022711,
          "minLongitude": 120.15123,
          "maxLongitude": 120.188985
        },
        "topSchools": [
          {
            "id": "213644",
            "name": "市立億載國小",
            "townshipName": "安平區",
            "students": 1795,
            "status": "正常"
          },
          {
            "id": "213511",
            "name": "市立安平國中",
            "townshipName": "安平區",
            "students": 1242,
            "status": "正常"
          },
          {
            "id": "213641",
            "name": "市立安平國小",
            "townshipName": "安平區",
            "students": 1031,
            "status": "正常"
          },
          {
            "id": "213647",
            "name": "市立九份子國(中)小",
            "townshipName": "安南區",
            "students": 1013,
            "status": "正常"
          }
        ]
      },
      {
        "id": "5-wsjs9",
        "geohash": "wsjs9",
        "precision": 5,
        "count": 11,
        "totalStudents": 7929,
        "latitude": 23.306688,
        "longitude": 120.312216,
        "bounds": {
          "minLatitude": 23.298027,
          "maxLatitude": 23.316151,
          "minLongitude": 120.298695,
          "maxLongitude": 120.318964
        },
        "topSchools": [
          {
            "id": "114728",
            "name": "市立新營國小",
            "townshipName": "新營區",
            "students": 1109,
            "status": "正常"
          },
          {
            "id": "114732",
            "name": "市立新進國小",
            "townshipName": "新營區",
            "students": 990,
            "status": "正常"
          },
          {
            "id": "110312",
            "name": "國立新營高中",
            "townshipName": "新營區",
            "students": 948,
            "status": "正常"
          },
          {
            "id": "111313:國中",
            "name": "私立南光高中附設國中",
            "townshipName": "新營區",
            "students": 906,
            "status": "正常"
          }
        ]
      },
      {
        "id": "5-wsjs8",
        "geohash": "wsjs8",
        "precision": 5,
        "count": 11,
        "totalStudents": 1452,
        "latitude": 23.311644,
        "longitude": 120.264477,
        "bounds": {
          "minLatitude": 23.29122,
          "maxLatitude": 23.329645,
          "minLongitude": 120.243418,
          "maxLongitude": 120.275195
        },
        "topSchools": [
          {
            "id": "114737",
            "name": "市立鹽水國小",
            "townshipName": "鹽水區",
            "students": 435,
            "status": "正常"
          },
          {
            "id": "114534",
            "name": "市立鹽水國中",
            "townshipName": "鹽水區",
            "students": 258,
            "status": "正常"
          },
          {
            "id": "111322:國中",
            "name": "私立明達高中附設國中",
            "townshipName": "鹽水區",
            "students": 175,
            "status": "正常"
          },
          {
            "id": "111322",
            "name": "私立明達高中",
            "townshipName": "鹽水區",
            "students": 151,
            "status": "正常"
          }
        ]
      },
      {
        "id": "5-wsj7p",
        "geohash": "wsj7p",
        "precision": 5,
        "count": 10,
        "totalStudents": 10913,
        "latitude": 23.046273,
        "longitude": 120.208854,
        "bounds": {
          "minLatitude": 23.027906,
          "maxLatitude": 23.067144,
          "minLongitude": 120.193119,
          "maxLongitude": 120.220465
        },
        "topSchools": [
          {
            "id": "213638",
            "name": "市立海佃國小",
            "townshipName": "安南區",
            "students": 1955,
            "status": "正常"
          },
          {
            "id": "213626",
            "name": "市立安順國小",
            "townshipName": "安南區",
            "students": 1594,
            "status": "正常"
          },
          {
            "id": "213627",
            "name": "市立和順國小",
            "townshipName": "安南區",
            "students": 1363,
            "status": "正常"
          },
          {
            "id": "213629",
            "name": "市立安慶國小",
            "townshipName": "安南區",
            "students": 1333,
            "status": "正常"
          }
        ]
      },
      {
        "id": "5-wsje9",
        "geohash": "wsje9",
        "precision": 5,
        "count": 9,
        "totalStudents": 4217,
        "latitude": 23.134116,
        "longitude": 120.299483,
        "bounds": {
          "minLatitude": 23.11571,
          "maxLatitude": 23.156193,
          "minLongitude": 120.287628,
          "maxLongitude": 120.310755
        },
        "topSchools": [
          {
            "id": "114650",
            "name": "市立大成國小",
            "townshipName": "善化區",
            "students": 1258,
            "status": "正常"
          },
          {
            "id": "113601",
            "name": "市立蓮潭國(中)小",
            "townshipName": "善化區",
            "students": 895,
            "status": "正常"
          },
          {
            "id": "110315",
            "name": "國立善化高中",
            "townshipName": "善化區",
            "students": 797,
            "status": "正常"
          },
          {
            "id": "114510",
            "name": "市立善化國中",
            "townshipName": "善化區",
            "students": 392,
            "status": "正常"
          }
        ]
      },
      {
        "id": "5-wsjd8",
        "geohash": "wsjd8",
        "precision": 5,
        "count": 8,
        "totalStudents": 15882,
        "latitude": 22.967267,
        "longitude": 120.244838,
        "bounds": {
          "minLatitude": 22.948708,
          "maxLatitude": 22.9827,
          "minLongitude": 120.235981,
          "maxLongitude": 120.254528
        },
        "topSchools": [
          {
            "id": "1055",
            "name": "中華醫事科技大學",
            "townshipName": "仁德區",
            "students": 6614,
            "status": "正常"
          },
          {
            "id": "213514",
            "name": "市立復興國中",
            "townshipName": "東區",
            "students": 3018,
            "status": "正常"
          },
          {
            "id": "213639",
            "name": "市立東區復興國小",
            "townshipName": "東區",
            "students": 2123,
            "status": "正常"
          },
          {
            "id": "213646",
            "name": "市立裕文國小",
            "townshipName": "東區",
            "students": 1081,
            "status": "正常"
          }
        ]
      },
      {
        "id": "5-wsjeb",
        "geohash": "wsjeb",
        "precision": 5,
        "count": 8,
        "totalStudents": 5867,
        "latitude": 23.180905,
        "longitude": 120.253217,
        "bounds": {
          "minLatitude": 23.17289,
          "maxLatitude": 23.188472,
          "minLongitude": 120.243597,
          "maxLongitude": 120.266056
        },
        "topSchools": [
          {
            "id": "111323:國中",
            "name": "方濟會學校財團法人臺南市黎明高中附設國中部",
            "townshipName": "麻豆區",
            "students": 1150,
            "status": "正常"
          },
          {
            "id": "114659",
            "name": "市立麻豆國小",
            "townshipName": "麻豆區",
            "students": 908,
            "status": "正常"
          },
          {
            "id": "110405",
            "name": "國立曾文家商",
            "townshipName": "麻豆區",
            "students": 834,
            "status": "正常"
          },
          {
            "id": "110410",
            "name": "國立曾文農工",
            "townshipName": "麻豆區",
            "students": 831,
            "status": "正常"
          }
        ]
      },
      {
        "id": "5-wsj7x",
        "geohash": "wsj7x",
        "precision": 5,
        "count": 7,
        "totalStudents": 4569,
        "latitude": 23.126337,
        "longitude": 120.207193,
        "bounds": {
          "minLatitude": 23.119326,
          "maxLatitude": 23.140764,
          "minLongitude": 120.196172,
          "maxLongitude": 120.229727
        },
        "topSchools": [
          {
            "id": "111320:國中",
            "name": "私立港明高中附設國中",
            "townshipName": "西港區",
            "students": 1711,
            "status": "正常"
          },
          {
            "id": "111320",
            "name": "私立港明高中",
            "townshipName": "西港區",
            "students": 1608,
            "status": "正常"
          },
          {
            "id": "114675",
            "name": "市立西港國小",
            "townshipName": "西港區",
            "students": 663,
            "status": "正常"
          },
          {
            "id": "114526",
            "name": "市立西港國中",
            "townshipName": "西港區",
            "students": 262,
            "status": "正常"
          }
        ]
      },
      {
        "id": "5-wsjsd",
        "geohash": "wsjsd",
        "precision": 5,
        "count": 7,
        "totalStudents": 2717,
        "latitude": 23.316163,
        "longitude": 120.337709,
        "bounds": {
          "minLatitude": 23.305947,
          "maxLatitude": 23.333437,
          "minLongitude": 120.322408,
          "maxLongitude": 120.362564
        },
        "topSchools": [
          {
            "id": "114533",
            "name": "市立新東國中",
            "townshipName": "新營區",
            "students": 1076,
            "status": "正常"
          },
          {
            "id": "114781",
            "name": "市立新泰國小",
            "townshipName": "新營區",
            "students": 685,
            "status": "正常"
          },
          {
            "id": "111321",
            "name": "臺南市興國高中",
            "townshipName": "新營區",
            "students": 474,
            "status": "正常"
          },
          {
            "id": "111321:國中",
            "name": "私立興國高中附設國中",
            "townshipName": "新營區",
            "students": 357,
            "status": "正常"
          }
        ]
      },
      {
        "id": "5-wsje1",
        "geohash": "wsje1",
        "precision": 5,
        "count": 7,
        "totalStudents": 6456,
        "latitude": 23.040792,
        "longitude": 120.306779,
        "bounds": {
          "minLatitude": 23.033238,
          "maxLatitude": 23.064675,
          "minLongitude": 120.294387,
          "maxLongitude": 120.31869
        },
        "topSchools": [
          {
            "id": "1052",
            "name": "中信科技大學",
            "townshipName": "新市區",
            "students": 1769,
            "status": "正常"
          },
          {
            "id": "110317",
            "name": "國立新化高中",
            "townshipName": "新化區",
            "students": 1190,
            "status": "正常"
          },
          {
            "id": "110401",
            "name": "國立新化高工",
            "townshipName": "新化區",
            "students": 1031,
            "status": "正常"
          },
          {
            "id": "114630",
            "name": "市立新化國小",
            "townshipName": "新化區",
            "students": 923,
            "status": "正常"
          }
        ]
      },
      {
        "id": "5-wsjdd",
        "geohash": "wsjdd",
        "precision": 5,
        "count": 7,
        "totalStudents": 1637,
        "latitude": 22.961208,
        "longitude": 120.341511,
        "bounds": {
          "minLatitude": 22.940026,
          "maxLatitude": 22.972006,
          "minLongitude": 120.324426,
          "maxLongitude": 120.360625
        },
        "topSchools": [
          {
            "id": "114614",
            "name": "市立五甲國小",
            "townshipName": "關廟區",
            "students": 646,
            "status": "正常"
          },
          {
            "id": "114504",
            "name": "市立關廟國中",
            "townshipName": "關廟區",
            "students": 428,
            "status": "正常"
          },
          {
            "id": "114613",
            "name": "市立關廟國小",
            "townshipName": "關廟區",
            "students": 428,
            "status": "正常"
          },
          {
            "id": "114618",
            "name": "市立深坑國小",
            "townshipName": "關廟區",
            "students": 57,
            "status": "正常"
          }
        ]
      },
      {
        "id": "5-wsj7w",
        "geohash": "wsj7w",
        "precision": 5,
        "count": 6,
        "totalStudents": 2213,
        "latitude": 23.142271,
        "longitude": 120.167743,
        "bounds": {
          "minLatitude": 23.121374,
          "maxLatitude": 23.157869,
          "minLongitude": 120.153493,
          "maxLongitude": 120.180465
        },
        "topSchools": [
          {
            "id": "114523",
            "name": "市立佳里國中",
            "townshipName": "佳里區",
            "students": 1148,
            "status": "正常"
          },
          {
            "id": "114673",
            "name": "市立仁愛國小",
            "townshipName": "佳里區",
            "students": 725,
            "status": "正常"
          },
          {
            "id": "114677",
            "name": "市立西港區成功國小",
            "townshipName": "西港區",
            "students": 146,
            "status": "正常"
          },
          {
            "id": "114671",
            "name": "市立塭內國小",
            "townshipName": "佳里區",
            "students": 106,
            "status": "正常"
          }
        ]
      },
      {
        "id": "5-wsjs2",
        "geohash": "wsjs2",
        "precision": 5,
        "count": 6,
        "totalStudents": 291,
        "latitude": 23.267138,
        "longitude": 120.263436,
        "bounds": {
          "minLatitude": 23.250035,
          "maxLatitude": 23.287272,
          "minLongitude": 120.246214,
          "maxLongitude": 120.277228
        },
        "topSchools": [
          {
            "id": "114731",
            "name": "市立新營區新興國小",
            "townshipName": "新營區",
            "students": 107,
            "status": "正常"
          },
          {
            "id": "114714",
            "name": "市立甲中國小",
            "townshipName": "下營區",
            "students": 66,
            "status": "正常"
          },
          {
            "id": "114739",
            "name": "市立坔頭港國小",
            "townshipName": "鹽水區",
            "students": 47,
            "status": "正常"
          },
          {
            "id": "114742",
            "name": "市立竹埔國小",
            "townshipName": "鹽水區",
            "students": 36,
            "status": "正常"
          }
        ]
      },
      {
        "id": "5-wsjsu",
        "geohash": "wsjsu",
        "precision": 5,
        "count": 6,
        "totalStudents": 1181,
        "latitude": 23.359634,
        "longitude": 120.424724,
        "bounds": {
          "minLatitude": 23.344559,
          "maxLatitude": 23.376981,
          "minLongitude": 120.412595,
          "maxLongitude": 120.444981
        },
        "topSchools": [
          {
            "id": "114748",
            "name": "市立白河國小",
            "townshipName": "白河區",
            "students": 461,
            "status": "正常"
          },
          {
            "id": "110403",
            "name": "國立白河商工",
            "townshipName": "白河區",
            "students": 322,
            "status": "正常"
          },
          {
            "id": "114535",
            "name": "市立白河國中",
            "townshipName": "白河區",
            "students": 246,
            "status": "正常"
          },
          {
            "id": "114750",
            "name": "市立竹門國小",
            "townshipName": "白河區",
            "students": 56,
            "status": "正常"
          }
        ]
      },
      {
        "id": "5-wsj7n",
        "geohash": "wsj7n",
        "precision": 5,
        "count": 6,
        "totalStudents": 5277,
        "latitude": 23.056715,
        "longitude": 120.164802,
        "bounds": {
          "minLatitude": 23.048793,
          "maxLatitude": 23.064459,
          "minLongitude": 120.150409,
          "maxLongitude": 120.178239
        },
        "topSchools": [
          {
            "id": "213628",
            "name": "市立海東國小",
            "townshipName": "安南區",
            "students": 2099,
            "status": "正常"
          },
          {
            "id": "213512",
            "name": "市立安南國中",
            "townshipName": "安南區",
            "students": 1484,
            "status": "正常"
          },
          {
            "id": "1125",
            "name": "中信金融管理學院",
            "townshipName": "安南區",
            "students": 943,
            "status": "正常"
          },
          {
            "id": "213636",
            "name": "市立安佃國小",
            "townshipName": "安南區",
            "students": 314,
            "status": "正常"
          }
        ]
      },
      {
        "id": "5-wsj7y",
        "geohash": "wsj7y",
        "precision": 5,
        "count": 6,
        "totalStudents": 3874,
        "latitude": 23.174141,
        "longitude": 120.170654,
        "bounds": {
          "minLatitude": 23.159862,
          "maxLatitude": 23.198117,
          "minLongitude": 120.152603,
          "maxLongitude": 120.182109
        },
        "topSchools": [
          {
            "id": "114668",
            "name": "市立佳里國小",
            "townshipName": "佳里區",
            "students": 1232,
            "status": "正常"
          },
          {
            "id": "110404",
            "name": "國立北門農工",
            "townshipName": "佳里區",
            "students": 1002,
            "status": "正常"
          },
          {
            "id": "110311",
            "name": "國立北門高中",
            "townshipName": "佳里區",
            "students": 909,
            "status": "正常"
          },
          {
            "id": "114780",
            "name": "市立信義國小",
            "townshipName": "佳里區",
            "students": 449,
            "status": "正常"
          }
        ]
      },
      {
        "id": "5-wsjkn",
        "geohash": "wsjkn",
        "precision": 5,
        "count": 6,
        "totalStudents": 1237,
        "latitude": 23.229461,
        "longitude": 120.169058,
        "bounds": {
          "minLatitude": 23.206399,
          "maxLatitude": 23.2462,
          "minLongitude": 120.150633,
          "maxLongitude": 120.183803
        },
        "topSchools": [
          {
            "id": "114710",
            "name": "市立東陽國小",
            "townshipName": "學甲區",
            "students": 420,
            "status": "正常"
          },
          {
            "id": "114706",
            "name": "市立學甲國小",
            "townshipName": "學甲區",
            "students": 307,
            "status": "正常"
          },
          {
            "id": "114525",
            "name": "市立學甲國中",
            "townshipName": "學甲區",
            "students": 275,
            "status": "正常"
          },
          {
            "id": "114527",
            "name": "市立將軍國中",
            "townshipName": "將軍區",
            "students": 108,
            "status": "正常"
          }
        ]
      },
      {
        "id": "5-wsje3",
        "geohash": "wsje3",
        "precision": 5,
        "count": 6,
        "totalStudents": 5150,
        "latitude": 23.095042,
        "longitude": 120.298014,
        "bounds": {
          "minLatitude": 23.078928,
          "maxLatitude": 23.107038,
          "minLongitude": 120.290937,
          "maxLongitude": 120.319015
        },
        "topSchools": [
          {
            "id": "114654",
            "name": "市立新市國小",
            "townshipName": "新市區",
            "students": 1601,
            "status": "正常"
          },
          {
            "id": "110328:國小",
            "name": "國立南科高級實驗中學附設國小部",
            "townshipName": "新市區",
            "students": 1420,
            "status": "正常"
          },
          {
            "id": "110328:國中",
            "name": "國立南科高級實驗中學附設國中部",
            "townshipName": "新市區",
            "students": 733,
            "status": "正常"
          },
          {
            "id": "114515",
            "name": "市立新市國中",
            "townshipName": "新市區",
            "students": 715,
            "status": "正常"
          }
        ]
      },
      {
        "id": "5-wsjd9",
        "geohash": "wsjd9",
        "precision": 5,
        "count": 6,
        "totalStudents": 5495,
        "latitude": 22.968258,
        "longitude": 120.294007,
        "bounds": {
          "minLatitude": 22.962434,
          "maxLatitude": 22.971895,
          "minLongitude": 120.288962,
          "maxLongitude": 120.29843
        },
        "topSchools": [
          {
            "id": "114503",
            "name": "市立歸仁國中",
            "townshipName": "歸仁區",
            "students": 1215,
            "status": "正常"
          },
          {
            "id": "114778",
            "name": "市立文化國小",
            "townshipName": "歸仁區",
            "students": 1062,
            "status": "正常"
          },
          {
            "id": "110302",
            "name": "國立新豐高中",
            "townshipName": "歸仁區",
            "students": 946,
            "status": "正常"
          },
          {
            "id": "114609",
            "name": "市立歸仁國小",
            "townshipName": "歸仁區",
            "students": 821,
            "status": "正常"
          }
        ]
      },
      {
        "id": "5-wsjs0",
        "geohash": "wsjs0",
        "precision": 5,
        "count": 5,
        "totalStudents": 1064,
        "latitude": 23.225774,
        "longitude": 120.263231,
        "bounds": {
          "minLatitude": 23.205482,
          "maxLatitude": 23.23921,
          "minLongitude": 120.240129,
          "maxLongitude": 120.276449
        },
        "topSchools": [
          {
            "id": "114716",
            "name": "市立東興國小",
            "townshipName": "下營區",
            "students": 392,
            "status": "正常"
          },
          {
            "id": "114519",
            "name": "市立下營國中",
            "townshipName": "下營區",
            "students": 255,
            "status": "正常"
          },
          {
            "id": "114711",
            "name": "市立下營國小",
            "townshipName": "下營區",
            "students": 210,
            "status": "正常"
          },
          {
            "id": "114712",
            "name": "市立中營國小",
            "townshipName": "下營區",
            "students": 119,
            "status": "正常"
          }
        ]
      },
      {
        "id": "5-wsjd2",
        "geohash": "wsjd2",
        "precision": 5,
        "count": 5,
        "totalStudents": 4573,
        "latitude": 22.915296,
        "longitude": 120.255138,
        "bounds": {
          "minLatitude": 22.905604,
          "maxLatitude": 22.922594,
          "minLongitude": 120.234407,
          "maxLongitude": 120.272835
        },
        "topSchools": [
          {
            "id": "1033",
            "name": "長榮大學",
            "townshipName": "歸仁區",
            "students": 4078,
            "status": "正常"
          },
          {
            "id": "114612",
            "name": "市立大潭國小",
            "townshipName": "歸仁區",
            "students": 176,
            "status": "正常"
          },
          {
            "id": "114502",
            "name": "市立仁德文賢國中",
            "townshipName": "仁德區",
            "students": 164,
            "status": "正常"
          },
          {
            "id": "114602",
            "name": "市立文賢國小",
            "townshipName": "仁德區",
            "students": 97,
            "status": "正常"
          }
        ]
      },
      {
        "id": "5-wsje0",
        "geohash": "wsje0",
        "precision": 5,
        "count": 5,
        "totalStudents": 12469,
        "latitude": 23.037907,
        "longitude": 120.249136,
        "bounds": {
          "minLatitude": 23.027782,
          "maxLatitude": 23.047617,
          "minLongitude": 120.237105,
          "maxLongitude": 120.268308
        },
        "topSchools": [
          {
            "id": "1051",
            "name": "臺南應用科技大學",
            "townshipName": "永康區",
            "students": 8648,
            "status": "正常"
          },
          {
            "id": "114505",
            "name": "市立永康國中",
            "townshipName": "永康區",
            "students": 1513,
            "status": "正常"
          },
          {
            "id": "114625",
            "name": "市立三村國小",
            "townshipName": "永康區",
            "students": 1111,
            "status": "正常"
          },
          {
            "id": "114628",
            "name": "市立龍潭國小",
            "townshipName": "永康區",
            "students": 671,
            "status": "正常"
          }
        ]
      },
      {
        "id": "5-wsj6w",
        "geohash": "wsj6w",
        "precision": 5,
        "count": 5,
        "totalStudents": 2195,
        "latitude": 22.963323,
        "longitude": 120.182488,
        "bounds": {
          "minLatitude": 22.9424,
          "maxLatitude": 22.977195,
          "minLongitude": 120.169582,
          "maxLongitude": 120.19003
        },
        "topSchools": [
          {
            "id": "213612",
            "name": "市立日新國小",
            "townshipName": "南區",
            "students": 764,
            "status": "正常"
          },
          {
            "id": "213613",
            "name": "市立永華國小",
            "townshipName": "南區",
            "students": 715,
            "status": "正常"
          },
          {
            "id": "213610",
            "name": "市立喜樹國小",
            "townshipName": "南區",
            "students": 333,
            "status": "正常"
          },
          {
            "id": "213515",
            "name": "市立新興國中",
            "townshipName": "南區",
            "students": 306,
            "status": "正常"
          }
        ]
      },
      {
        "id": "5-wsj7t",
        "geohash": "wsj7t",
        "precision": 5,
        "count": 4,
        "totalStudents": 912,
        "latitude": 23.142164,
        "longitude": 120.125788,
        "bounds": {
          "minLatitude": 23.13712,
          "maxLatitude": 23.149829,
          "minLongitude": 120.107044,
          "maxLongitude": 120.141891
        },
        "topSchools": [
          {
            "id": "111502",
            "name": "私立昭明國中(代用)",
            "townshipName": "七股區",
            "students": 738,
            "status": "正常"
          },
          {
            "id": "114681",
            "name": "市立七股國小",
            "townshipName": "七股區",
            "students": 121,
            "status": "正常"
          },
          {
            "id": "114685",
            "name": "市立光復生態實驗小學",
            "townshipName": "七股區",
            "students": 53,
            "status": "正常"
          },
          {
            "id": "114688",
            "name": "市立龍山國小",
            "townshipName": "七股區",
            "students": 0,
            "status": "待確認"
          }
        ]
      },
      {
        "id": "5-wsj7m",
        "geohash": "wsj7m",
        "precision": 5,
        "count": 4,
        "totalStudents": 232,
        "latitude": 23.089785,
        "longitude": 120.130292,
        "bounds": {
          "minLatitude": 23.077261,
          "maxLatitude": 23.102166,
          "minLongitude": 120.116783,
          "maxLongitude": 120.14532
        },
        "topSchools": [
          {
            "id": "213643",
            "name": "市立學東國小",
            "townshipName": "安南區",
            "students": 66,
            "status": "正常"
          },
          {
            "id": "213631",
            "name": "市立青草國小",
            "townshipName": "安南區",
            "students": 64,
            "status": "正常"
          },
          {
            "id": "114684",
            "name": "市立三股國小",
            "townshipName": "七股區",
            "students": 55,
            "status": "正常"
          },
          {
            "id": "114529",
            "name": "市立竹橋國中",
            "townshipName": "七股區",
            "students": 47,
            "status": "正常"
          }
        ]
      },
      {
        "id": "5-wsjkj",
        "geohash": "wsjkj",
        "precision": 5,
        "count": 4,
        "totalStudents": 127,
        "latitude": 23.228386,
        "longitude": 120.119749,
        "bounds": {
          "minLatitude": 23.214942,
          "maxLatitude": 23.241219,
          "minLongitude": 120.106701,
          "maxLongitude": 120.136177
        },
        "topSchools": [
          {
            "id": "114697",
            "name": "市立長平國小",
            "townshipName": "將軍區",
            "students": 35,
            "status": "正常"
          },
          {
            "id": "114693",
            "name": "市立將軍國小",
            "townshipName": "將軍區",
            "students": 34,
            "status": "正常"
          },
          {
            "id": "114705",
            "name": "市立三慈國小",
            "townshipName": "北門區",
            "students": 32,
            "status": "正常"
          },
          {
            "id": "114701",
            "name": "市立文山國小",
            "townshipName": "北門區",
            "students": 26,
            "status": "正常"
          }
        ]
      },
      {
        "id": "5-wsje8",
        "geohash": "wsje8",
        "precision": 5,
        "count": 4,
        "totalStudents": 650,
        "latitude": 23.142215,
        "longitude": 120.248694,
        "bounds": {
          "minLatitude": 23.123205,
          "maxLatitude": 23.151552,
          "minLongitude": 120.237679,
          "maxLongitude": 120.272925
        },
        "topSchools": [
          {
            "id": "114656",
            "name": "市立安定國小",
            "townshipName": "安定區",
            "students": 351,
            "status": "正常"
          },
          {
            "id": "114651",
            "name": "市立陽明國小",
            "townshipName": "善化區",
            "students": 170,
            "status": "正常"
          },
          {
            "id": "114663",
            "name": "市立安業國小",
            "townshipName": "麻豆區",
            "students": 75,
            "status": "正常"
          },
          {
            "id": "114667",
            "name": "市立紀安國小",
            "townshipName": "麻豆區",
            "students": 54,
            "status": "正常"
          }
        ]
      },
      {
        "id": "5-wsj7z",
        "geohash": "wsj7z",
        "precision": 5,
        "count": 4,
        "totalStudents": 464,
        "latitude": 23.184731,
        "longitude": 120.202728,
        "bounds": {
          "minLatitude": 23.174212,
          "maxLatitude": 23.191528,
          "minLongitude": 120.192518,
          "maxLongitude": 120.220522
        },
        "topSchools": [
          {
            "id": "114669",
            "name": "市立佳興國小",
            "townshipName": "佳里區",
            "students": 157,
            "status": "正常"
          },
          {
            "id": "114672",
            "name": "市立子龍國小",
            "townshipName": "佳里區",
            "students": 145,
            "status": "正常"
          },
          {
            "id": "114662",
            "name": "市立大山國小",
            "townshipName": "麻豆區",
            "students": 98,
            "status": "正常"
          },
          {
            "id": "114524",
            "name": "市立佳興國中",
            "townshipName": "佳里區",
            "students": 64,
            "status": "正常"
          }
        ]
      },
      {
        "id": "5-wsjse",
        "geohash": "wsjse",
        "precision": 5,
        "count": 4,
        "totalStudents": 419,
        "latitude": 23.31609,
        "longitude": 120.393208,
        "bounds": {
          "minLatitude": 23.294721,
          "maxLatitude": 23.329126,
          "minLongitude": 120.377897,
          "maxLongitude": 120.404766
        },
        "topSchools": [
          {
            "id": "114770",
            "name": "市立東山國小",
            "townshipName": "東山區",
            "students": 275,
            "status": "正常"
          },
          {
            "id": "114537",
            "name": "市立東山國中",
            "townshipName": "東山區",
            "students": 94,
            "status": "正常"
          },
          {
            "id": "114769",
            "name": "市立樹人國小",
            "townshipName": "後壁區",
            "students": 27,
            "status": "正常"
          },
          {
            "id": "114775",
            "name": "市立吉貝耍國小",
            "townshipName": "東山區",
            "students": 23,
            "status": "正常"
          }
        ]
      },
      {
        "id": "5-wsjsf",
        "geohash": "wsjsf",
        "precision": 5,
        "count": 4,
        "totalStudents": 926,
        "latitude": 23.361207,
        "longitude": 120.354342,
        "bounds": {
          "minLatitude": 23.35431,
          "maxLatitude": 23.368941,
          "minLongitude": 120.332393,
          "maxLongitude": 120.366147
        },
        "topSchools": [
          {
            "id": "110314",
            "name": "國立後壁高中",
            "townshipName": "後壁區",
            "students": 523,
            "status": "正常"
          },
          {
            "id": "114763",
            "name": "市立後壁國小",
            "townshipName": "後壁區",
            "students": 192,
            "status": "正常"
          },
          {
            "id": "114539",
            "name": "市立後壁國中",
            "townshipName": "後壁區",
            "students": 176,
            "status": "正常"
          },
          {
            "id": "114540",
            "name": "市立菁寮國中",
            "townshipName": "後壁區",
            "students": 35,
            "status": "正常"
          }
        ]
      },
      {
        "id": "5-wsjs6",
        "geohash": "wsjs6",
        "precision": 5,
        "count": 4,
        "totalStudents": 3086,
        "latitude": 23.284043,
        "longitude": 120.338764,
        "bounds": {
          "minLatitude": 23.279693,
          "maxLatitude": 23.290397,
          "minLongitude": 120.329602,
          "maxLongitude": 120.364232
        },
        "topSchools": [
          {
            "id": "1287",
            "name": "敏惠醫護管理專科學校",
            "townshipName": "柳營區",
            "students": 2902,
            "status": "正常"
          },
          {
            "id": "114760",
            "name": "市立重溪國小",
            "townshipName": "柳營區",
            "students": 74,
            "status": "正常"
          },
          {
            "id": "114761",
            "name": "市立太康國小",
            "townshipName": "柳營區",
            "students": 63,
            "status": "正常"
          },
          {
            "id": "114536",
            "name": "市立柳營國中",
            "townshipName": "柳營區",
            "students": 47,
            "status": "正常"
          }
        ]
      },
      {
        "id": "5-wsjd3",
        "geohash": "wsjd3",
        "precision": 5,
        "count": 4,
        "totalStudents": 552,
        "latitude": 22.929071,
        "longitude": 120.281567,
        "bounds": {
          "minLatitude": 22.929066,
          "maxLatitude": 22.929086,
          "minLongitude": 120.281558,
          "maxLongitude": 120.281593
        },
        "topSchools": [
          {
            "id": "114344:國中",
            "name": "市立沙崙高中附設國中",
            "townshipName": "歸仁區",
            "students": 388,
            "status": "正常"
          },
          {
            "id": "114344:高中職",
            "name": "市立沙崙國際高中",
            "townshipName": "歸仁區",
            "students": 98,
            "status": "正常"
          },
          {
            "id": "114344:國小",
            "name": "市立沙崙國際高中附設國小",
            "townshipName": "歸仁區",
            "students": 66,
            "status": "正常"
          },
          {
            "id": "114544",
            "name": "市立沙崙國中",
            "townshipName": "歸仁區",
            "students": 0,
            "status": "待確認"
          }
        ]
      },
      {
        "id": "5-wsj7v",
        "geohash": "wsj7v",
        "precision": 5,
        "count": 3,
        "totalStudents": 144,
        "latitude": 23.177743,
        "longitude": 120.135491,
        "bounds": {
          "minLatitude": 23.160924,
          "maxLatitude": 23.187743,
          "minLongitude": 120.13444,
          "maxLongitude": 120.136845
        },
        "topSchools": [
          {
            "id": "114686",
            "name": "市立篤加國小",
            "townshipName": "七股區",
            "students": 82,
            "status": "正常"
          },
          {
            "id": "114682",
            "name": "市立後港國小",
            "townshipName": "七股區",
            "students": 62,
            "status": "正常"
          },
          {
            "id": "114528:國中",
            "name": "市立後港國中",
            "townshipName": "七股區",
            "students": 0,
            "status": "待確認"
          }
        ]
      },
      {
        "id": "5-wsj7q",
        "geohash": "wsj7q",
        "precision": 5,
        "count": 3,
        "totalStudents": 209,
        "latitude": 23.095671,
        "longitude": 120.158067,
        "bounds": {
          "minLatitude": 23.07374,
          "maxLatitude": 23.111513,
          "minLongitude": 120.154573,
          "maxLongitude": 120.160461
        },
        "topSchools": [
          {
            "id": "213635",
            "name": "市立安南區南興國小",
            "townshipName": "安南區",
            "students": 99,
            "status": "正常"
          },
          {
            "id": "114683",
            "name": "市立竹橋國小",
            "townshipName": "七股區",
            "students": 73,
            "status": "正常"
          },
          {
            "id": "114692",
            "name": "市立樹林國小",
            "townshipName": "七股區",
            "students": 37,
            "status": "正常"
          }
        ]
      },
      {
        "id": "5-wsjs3",
        "geohash": "wsjs3",
        "precision": 5,
        "count": 3,
        "totalStudents": 292,
        "latitude": 23.266385,
        "longitude": 120.308148,
        "bounds": {
          "minLatitude": 23.254745,
          "maxLatitude": 23.275078,
          "minLongitude": 120.296537,
          "maxLongitude": 120.315825
        },
        "topSchools": [
          {
            "id": "114758",
            "name": "市立柳營國小",
            "townshipName": "柳營區",
            "students": 256,
            "status": "正常"
          },
          {
            "id": "114713",
            "name": "市立賀建國小",
            "townshipName": "下營區",
            "students": 32,
            "status": "正常"
          },
          {
            "id": "111326",
            "name": "私立新榮高中",
            "townshipName": "柳營區",
            "students": 4,
            "status": "正常"
          }
        ]
      },
      {
        "id": "5-wsje6",
        "geohash": "wsje6",
        "precision": 5,
        "count": 3,
        "totalStudents": 332,
        "latitude": 23.105475,
        "longitude": 120.359536,
        "bounds": {
          "minLatitude": 23.100583,
          "maxLatitude": 23.112335,
          "minLongitude": 120.355644,
          "maxLongitude": 120.364643
        },
        "topSchools": [
          {
            "id": "114635",
            "name": "市立山上國小",
            "townshipName": "山上區",
            "students": 186,
            "status": "正常"
          },
          {
            "id": "114522",
            "name": "市立大內國中",
            "townshipName": "大內區",
            "students": 83,
            "status": "正常"
          },
          {
            "id": "114512",
            "name": "市立山上國中",
            "townshipName": "山上區",
            "students": 63,
            "status": "正常"
          }
        ]
      },
      {
        "id": "5-wsjs4",
        "geohash": "wsjs4",
        "precision": 5,
        "count": 3,
        "totalStudents": 1130,
        "latitude": 23.22352,
        "longitude": 120.354836,
        "bounds": {
          "minLatitude": 23.217397,
          "maxLatitude": 23.227392,
          "minLongitude": 120.348841,
          "maxLongitude": 120.365053
        },
        "topSchools": [
          {
            "id": "114717",
            "name": "市立六甲國小",
            "townshipName": "六甲區",
            "students": 707,
            "status": "正常"
          },
          {
            "id": "114520",
            "name": "市立六甲國中",
            "townshipName": "六甲區",
            "students": 351,
            "status": "正常"
          },
          {
            "id": "114722",
            "name": "市立嘉南國小",
            "townshipName": "六甲區",
            "students": 72,
            "status": "正常"
          }
        ]
      },
      {
        "id": "5-wsjkm",
        "geohash": "wsjkm",
        "precision": 5,
        "count": 3,
        "totalStudents": 145,
        "latitude": 23.268121,
        "longitude": 120.130096,
        "bounds": {
          "minLatitude": 23.253153,
          "maxLatitude": 23.286258,
          "minLongitude": 120.12468,
          "maxLongitude": 120.13723
        },
        "topSchools": [
          {
            "id": "114700",
            "name": "市立蚵寮國小",
            "townshipName": "北門區",
            "students": 64,
            "status": "正常"
          },
          {
            "id": "114530",
            "name": "市立北門國中",
            "townshipName": "北門區",
            "students": 49,
            "status": "正常"
          },
          {
            "id": "114699",
            "name": "市立北門國小",
            "townshipName": "北門區",
            "students": 32,
            "status": "正常"
          }
        ]
      },
      {
        "id": "5-wsjet",
        "geohash": "wsjet",
        "precision": 5,
        "count": 3,
        "totalStudents": 867,
        "latitude": 23.121615,
        "longitude": 120.462889,
        "bounds": {
          "minLatitude": 23.120458,
          "maxLatitude": 23.123206,
          "minLongitude": 120.458769,
          "maxLongitude": 120.470028
        },
        "topSchools": [
          {
            "id": "114636",
            "name": "市立玉井國小",
            "townshipName": "玉井區",
            "students": 371,
            "status": "正常"
          },
          {
            "id": "110407",
            "name": "國立玉井工商",
            "townshipName": "玉井區",
            "students": 303,
            "status": "正常"
          },
          {
            "id": "114511",
            "name": "市立玉井國中",
            "townshipName": "玉井區",
            "students": 193,
            "status": "正常"
          }
        ]
      },
      {
        "id": "5-wsj7r",
        "geohash": "wsj7r",
        "precision": 5,
        "count": 3,
        "totalStudents": 1108,
        "latitude": 23.097777,
        "longitude": 120.225776,
        "bounds": {
          "minLatitude": 23.080153,
          "maxLatitude": 23.114465,
          "minLongitude": 120.218872,
          "maxLongitude": 120.233702
        },
        "topSchools": [
          {
            "id": "114657",
            "name": "市立南安國小",
            "townshipName": "安定區",
            "students": 480,
            "status": "正常"
          },
          {
            "id": "114513",
            "name": "市立安定國中",
            "townshipName": "安定區",
            "students": 318,
            "status": "正常"
          },
          {
            "id": "114658",
            "name": "市立安定區南興國小",
            "townshipName": "安定區",
            "students": 310,
            "status": "正常"
          }
        ]
      },
      {
        "id": "5-wsjef",
        "geohash": "wsjef",
        "precision": 5,
        "count": 3,
        "totalStudents": 364,
        "latitude": 23.184344,
        "longitude": 120.332079,
        "bounds": {
          "minLatitude": 23.171166,
          "maxLatitude": 23.192814,
          "minLongitude": 120.326801,
          "maxLongitude": 120.341965
        },
        "topSchools": [
          {
            "id": "114720",
            "name": "市立官田國小",
            "townshipName": "官田區",
            "students": 222,
            "status": "正常"
          },
          {
            "id": "111419",
            "name": "私立陽明工商",
            "townshipName": "官田區",
            "students": 100,
            "status": "正常"
          },
          {
            "id": "114723",
            "name": "市立渡拔國小",
            "townshipName": "官田區",
            "students": 42,
            "status": "正常"
          }
        ]
      },
      {
        "id": "5-wsj6q",
        "geohash": "wsj6q",
        "precision": 5,
        "count": 3,
        "totalStudents": 1309,
        "latitude": 22.934931,
        "longitude": 120.184162,
        "bounds": {
          "minLatitude": 22.932338,
          "maxLatitude": 22.936228,
          "minLongitude": 120.180173,
          "maxLongitude": 120.186156
        },
        "topSchools": [
          {
            "id": "213609",
            "name": "市立省躬國小",
            "townshipName": "南區",
            "students": 566,
            "status": "正常"
          },
          {
            "id": "213303:國中",
            "name": "市立南寧高中附設國中部",
            "townshipName": "南區",
            "students": 402,
            "status": "正常"
          },
          {
            "id": "213303",
            "name": "市立南寧高中",
            "townshipName": "南區",
            "students": 341,
            "status": "正常"
          }
        ]
      },
      {
        "id": "5-wsjed",
        "geohash": "wsjed",
        "precision": 5,
        "count": 2,
        "totalStudents": 303,
        "latitude": 23.128854,
        "longitude": 120.342663,
        "bounds": {
          "minLatitude": 23.11907,
          "maxLatitude": 23.138638,
          "minLongitude": 120.324725,
          "maxLongitude": 120.360601
        },
        "topSchools": [
          {
            "id": "114648",
            "name": "市立茄拔國小",
            "townshipName": "善化區",
            "students": 161,
            "status": "正常"
          },
          {
            "id": "114724",
            "name": "市立大內國小",
            "townshipName": "大內區",
            "students": 142,
            "status": "正常"
          }
        ]
      },
      {
        "id": "5-wsj6r",
        "geohash": "wsj6r",
        "precision": 5,
        "count": 2,
        "totalStudents": 8612,
        "latitude": 22.919877,
        "longitude": 120.221386,
        "bounds": {
          "minLatitude": 22.91908,
          "maxLatitude": 22.920673,
          "minLongitude": 120.216984,
          "maxLongitude": 120.225789
        },
        "topSchools": [
          {
            "id": "1025",
            "name": "嘉南藥理大學",
            "townshipName": "仁德區",
            "students": 8437,
            "status": "正常"
          },
          {
            "id": "114605",
            "name": "市立大甲國小",
            "townshipName": "仁德區",
            "students": 175,
            "status": "正常"
          }
        ]
      },
      {
        "id": "5-wsje5",
        "geohash": "wsje5",
        "precision": 5,
        "count": 2,
        "totalStudents": 133,
        "latitude": 23.060165,
        "longitude": 120.396939,
        "bounds": {
          "minLatitude": 23.056009,
          "maxLatitude": 23.064321,
          "minLongitude": 120.389729,
          "maxLongitude": 120.404149
        },
        "topSchools": [
          {
            "id": "114644",
            "name": "市立左鎮國小",
            "townshipName": "左鎮區",
            "students": 67,
            "status": "正常"
          },
          {
            "id": "114646",
            "name": "市立光榮實驗小學",
            "townshipName": "左鎮區",
            "students": 66,
            "status": "正常"
          }
        ]
      },
      {
        "id": "5-wsjeh",
        "geohash": "wsjeh",
        "precision": 5,
        "count": 2,
        "totalStudents": 39,
        "latitude": 23.051331,
        "longitude": 120.428093,
        "bounds": {
          "minLatitude": 23.046155,
          "maxLatitude": 23.056507,
          "minLongitude": 120.410507,
          "maxLongitude": 120.445679
        },
        "topSchools": [
          {
            "id": "114517",
            "name": "市立左鎮國中",
            "townshipName": "左鎮區",
            "students": 39,
            "status": "正常"
          },
          {
            "id": "114641",
            "name": "市立西埔國小",
            "townshipName": "南化區",
            "students": 0,
            "status": "待確認"
          }
        ]
      },
      {
        "id": "5-wsjth",
        "geohash": "wsjth",
        "precision": 5,
        "count": 2,
        "totalStudents": 113,
        "latitude": 23.3885,
        "longitude": 120.428582,
        "bounds": {
          "minLatitude": 23.379391,
          "maxLatitude": 23.397609,
          "minLongitude": 120.416289,
          "maxLongitude": 120.440874
        },
        "topSchools": [
          {
            "id": "114749",
            "name": "市立玉豐國小",
            "townshipName": "白河區",
            "students": 82,
            "status": "正常"
          },
          {
            "id": "114751",
            "name": "市立內角國小",
            "townshipName": "白河區",
            "students": 31,
            "status": "正常"
          }
        ]
      },
      {
        "id": "5-wsj7j",
        "geohash": "wsj7j",
        "precision": 5,
        "count": 2,
        "totalStudents": 493,
        "latitude": 23.051295,
        "longitude": 120.128287,
        "bounds": {
          "minLatitude": 23.03653,
          "maxLatitude": 23.06606,
          "minLongitude": 120.126409,
          "maxLongitude": 120.130164
        },
        "topSchools": [
          {
            "id": "213630",
            "name": "市立土城國小",
            "townshipName": "安南區",
            "students": 439,
            "status": "正常"
          },
          {
            "id": "213633",
            "name": "市立顯宮國小",
            "townshipName": "安南區",
            "students": 54,
            "status": "正常"
          }
        ]
      },
      {
        "id": "5-wsjec",
        "geohash": "wsjec",
        "precision": 5,
        "count": 2,
        "totalStudents": 534,
        "latitude": 23.190103,
        "longitude": 120.314749,
        "bounds": {
          "minLatitude": 23.187862,
          "maxLatitude": 23.192343,
          "minLongitude": 120.314614,
          "maxLongitude": 120.314883
        },
        "topSchools": [
          {
            "id": "114721",
            "name": "市立隆田國小",
            "townshipName": "官田區",
            "students": 402,
            "status": "正常"
          },
          {
            "id": "114521",
            "name": "市立官田國中",
            "townshipName": "官田區",
            "students": 132,
            "status": "正常"
          }
        ]
      },
      {
        "id": "5-wsjsk",
        "geohash": "wsjsk",
        "precision": 5,
        "count": 2,
        "totalStudents": 132,
        "latitude": 23.269509,
        "longitude": 120.449438,
        "bounds": {
          "minLatitude": 23.26594,
          "maxLatitude": 23.273078,
          "minLongitude": 120.446971,
          "maxLongitude": 120.451905
        },
        "topSchools": [
          {
            "id": "114538",
            "name": "市立東原國中",
            "townshipName": "東山區",
            "students": 77,
            "status": "正常"
          },
          {
            "id": "114772",
            "name": "市立東原國小",
            "townshipName": "東山區",
            "students": 55,
            "status": "正常"
          }
        ]
      },
      {
        "id": "5-wsjej",
        "geohash": "wsjej",
        "precision": 5,
        "count": 2,
        "totalStudents": 119,
        "latitude": 23.044479,
        "longitude": 120.475515,
        "bounds": {
          "minLatitude": 23.04431,
          "maxLatitude": 23.044647,
          "minLongitude": 120.470114,
          "maxLongitude": 120.480916
        },
        "topSchools": [
          {
            "id": "114639",
            "name": "市立南化國小",
            "townshipName": "南化區",
            "students": 77,
            "status": "正常"
          },
          {
            "id": "114516",
            "name": "市立南化國中",
            "townshipName": "南化區",
            "students": 42,
            "status": "正常"
          }
        ]
      },
      {
        "id": "5-wsjsc",
        "geohash": "wsjsc",
        "precision": 5,
        "count": 2,
        "totalStudents": 93,
        "latitude": 23.359113,
        "longitude": 120.312849,
        "bounds": {
          "minLatitude": 23.345177,
          "maxLatitude": 23.37305,
          "minLongitude": 120.3096,
          "maxLongitude": 120.316097
        },
        "topSchools": [
          {
            "id": "114766",
            "name": "市立新東國小",
            "townshipName": "後壁區",
            "students": 74,
            "status": "正常"
          },
          {
            "id": "114768",
            "name": "市立新嘉國小",
            "townshipName": "後壁區",
            "students": 19,
            "status": "正常"
          }
        ]
      },
      {
        "id": "5-wsjs7",
        "geohash": "wsjs7",
        "precision": 5,
        "count": 2,
        "totalStudents": 119,
        "latitude": 23.262213,
        "longitude": 120.379928,
        "bounds": {
          "minLatitude": 23.257955,
          "maxLatitude": 23.26647,
          "minLongitude": 120.371923,
          "maxLongitude": 120.387933
        },
        "topSchools": [
          {
            "id": "114759",
            "name": "市立果毅國小",
            "townshipName": "柳營區",
            "students": 92,
            "status": "正常"
          },
          {
            "id": "114762",
            "name": "市立新山國小",
            "townshipName": "柳營區",
            "students": 27,
            "status": "正常"
          }
        ]
      },
      {
        "id": "5-wsjev",
        "geohash": "wsjev",
        "precision": 5,
        "count": 2,
        "totalStudents": 275,
        "latitude": 23.178164,
        "longitude": 120.48524,
        "bounds": {
          "minLatitude": 23.174186,
          "maxLatitude": 23.182141,
          "minLongitude": 120.485224,
          "maxLongitude": 120.485256
        },
        "topSchools": [
          {
            "id": "114638",
            "name": "市立楠西國小",
            "townshipName": "楠西區",
            "students": 177,
            "status": "正常"
          },
          {
            "id": "114514",
            "name": "市立楠西國中",
            "townshipName": "楠西區",
            "students": 98,
            "status": "正常"
          }
        ]
      },
      {
        "id": "5-wsjkr",
        "geohash": "wsjkr",
        "precision": 5,
        "count": 2,
        "totalStudents": 133,
        "latitude": 23.272568,
        "longitude": 120.202567,
        "bounds": {
          "minLatitude": 23.257852,
          "maxLatitude": 23.287285,
          "minLongitude": 120.201157,
          "maxLongitude": 120.203977
        },
        "topSchools": [
          {
            "id": "114709",
            "name": "市立頂洲國小",
            "townshipName": "學甲區",
            "students": 74,
            "status": "正常"
          },
          {
            "id": "114708",
            "name": "市立宅港國小",
            "townshipName": "學甲區",
            "students": 59,
            "status": "正常"
          }
        ]
      },
      {
        "id": "5-wsjdc",
        "geohash": "wsjdc",
        "precision": 5,
        "count": 2,
        "totalStudents": 245,
        "latitude": 22.993482,
        "longitude": 120.301744,
        "bounds": {
          "minLatitude": 22.992639,
          "maxLatitude": 22.994324,
          "minLongitude": 120.294012,
          "maxLongitude": 120.309477
        },
        "topSchools": [
          {
            "id": "114611",
            "name": "市立保西國小",
            "townshipName": "歸仁區",
            "students": 179,
            "status": "正常"
          },
          {
            "id": "114615",
            "name": "市立保東國小",
            "townshipName": "關廟區",
            "students": 66,
            "status": "正常"
          }
        ]
      },
      {
        "id": "5-wsjd6",
        "geohash": "wsjd6",
        "precision": 5,
        "count": 2,
        "totalStudents": 98,
        "latitude": 22.911788,
        "longitude": 120.349775,
        "bounds": {
          "minLatitude": 22.904304,
          "maxLatitude": 22.919272,
          "minLongitude": 120.347308,
          "maxLongitude": 120.352242
        },
        "topSchools": [
          {
            "id": "114617",
            "name": "市立文和實驗小學",
            "townshipName": "關廟區",
            "students": 74,
            "status": "正常"
          },
          {
            "id": "114616",
            "name": "市立崇和國小",
            "townshipName": "關廟區",
            "students": 24,
            "status": "正常"
          }
        ]
      },
      {
        "id": "5-wsj7k",
        "geohash": "wsj7k",
        "precision": 5,
        "count": 1,
        "totalStudents": 40,
        "latitude": 23.094347,
        "longitude": 120.098646,
        "bounds": {
          "minLatitude": 23.094347,
          "maxLatitude": 23.094347,
          "minLongitude": 120.098646,
          "maxLongitude": 120.098646
        },
        "topSchools": [
          {
            "id": "114689",
            "name": "市立建功國小",
            "townshipName": "七股區",
            "students": 40,
            "status": "正常"
          }
        ]
      },
      {
        "id": "5-wsjee",
        "geohash": "wsjee",
        "precision": 5,
        "count": 1,
        "totalStudents": 49,
        "latitude": 23.12211,
        "longitude": 120.392941,
        "bounds": {
          "minLatitude": 23.12211,
          "maxLatitude": 23.12211,
          "minLongitude": 120.392941,
          "maxLongitude": 120.392941
        },
        "topSchools": [
          {
            "id": "114726",
            "name": "市立二溪國小",
            "townshipName": "大內區",
            "students": 49,
            "status": "正常"
          }
        ]
      },
      {
        "id": "5-wsjs1",
        "geohash": "wsjs1",
        "precision": 5,
        "count": 1,
        "totalStudents": 85,
        "latitude": 23.240469,
        "longitude": 120.317011,
        "bounds": {
          "minLatitude": 23.240469,
          "maxLatitude": 23.240469,
          "minLongitude": 120.317011,
          "maxLongitude": 120.317011
        },
        "topSchools": [
          {
            "id": "114718",
            "name": "市立林鳳國小",
            "townshipName": "六甲區",
            "students": 85,
            "status": "正常"
          }
        ]
      },
      {
        "id": "5-wsjkw",
        "geohash": "wsjkw",
        "precision": 5,
        "count": 1,
        "totalStudents": 41,
        "latitude": 23.297198,
        "longitude": 120.169316,
        "bounds": {
          "minLatitude": 23.297198,
          "maxLatitude": 23.297198,
          "minLongitude": 120.169316,
          "maxLongitude": 120.169316
        },
        "topSchools": [
          {
            "id": "114702",
            "name": "市立錦湖國小",
            "townshipName": "北門區",
            "students": 41,
            "status": "正常"
          }
        ]
      },
      {
        "id": "5-wsjkt",
        "geohash": "wsjkt",
        "precision": 5,
        "count": 1,
        "totalStudents": 0,
        "latitude": 23.301396,
        "longitude": 120.124972,
        "bounds": {
          "minLatitude": 23.301396,
          "maxLatitude": 23.301396,
          "minLongitude": 120.124972,
          "maxLongitude": 120.124972
        },
        "topSchools": [
          {
            "id": "114703",
            "name": "市立雙春國小",
            "townshipName": "北門區",
            "students": 0,
            "status": "待確認"
          }
        ]
      },
      {
        "id": "5-wsjek",
        "geohash": "wsjek",
        "precision": 5,
        "count": 1,
        "totalStudents": 37,
        "latitude": 23.07805,
        "longitude": 120.429811,
        "bounds": {
          "minLatitude": 23.07805,
          "maxLatitude": 23.07805,
          "minLongitude": 120.429811,
          "maxLongitude": 120.429811
        },
        "topSchools": [
          {
            "id": "114637",
            "name": "市立層林國小",
            "townshipName": "玉井區",
            "students": 37,
            "status": "正常"
          }
        ]
      },
      {
        "id": "5-wsjsv",
        "geohash": "wsjsv",
        "precision": 5,
        "count": 1,
        "totalStudents": 66,
        "latitude": 23.344188,
        "longitude": 120.473799,
        "bounds": {
          "minLatitude": 23.344188,
          "maxLatitude": 23.344188,
          "minLongitude": 120.473799,
          "maxLongitude": 120.473799
        },
        "topSchools": [
          {
            "id": "114753",
            "name": "市立仙草實驗小學",
            "townshipName": "白河區",
            "students": 66,
            "status": "正常"
          }
        ]
      },
      {
        "id": "5-wsj6v",
        "geohash": "wsj6v",
        "precision": 5,
        "count": 1,
        "totalStudents": 72,
        "latitude": 23.018945,
        "longitude": 120.134657,
        "bounds": {
          "minLatitude": 23.018945,
          "maxLatitude": 23.018945,
          "minLongitude": 120.134657,
          "maxLongitude": 120.134657
        },
        "topSchools": [
          {
            "id": "213632",
            "name": "市立鎮海國小",
            "townshipName": "安南區",
            "students": 72,
            "status": "正常"
          }
        ]
      },
      {
        "id": "5-wsjeg",
        "geohash": "wsjeg",
        "precision": 5,
        "count": 1,
        "totalStudents": 1638,
        "latitude": 23.185892,
        "longitude": 120.374312,
        "bounds": {
          "minLatitude": 23.185892,
          "maxLatitude": 23.185892,
          "minLongitude": 120.374312,
          "maxLongitude": 120.374312
        },
        "topSchools": [
          {
            "id": "0035",
            "name": "國立臺南藝術大學",
            "townshipName": "官田區",
            "students": 1638,
            "status": "正常"
          }
        ]
      },
      {
        "id": "5-wsjsm",
        "geohash": "wsjsm",
        "precision": 5,
        "count": 1,
        "totalStudents": 66,
        "latitude": 23.280648,
        "longitude": 120.467387,
        "bounds": {
          "minLatitude": 23.280648,
          "maxLatitude": 23.280648,
          "minLongitude": 120.467387,
          "maxLongitude": 120.467387
        },
        "topSchools": [
          {
            "id": "114774",
            "name": "市立青山國小",
            "townshipName": "東山區",
            "students": 66,
            "status": "正常"
          }
        ]
      },
      {
        "id": "5-wsjem",
        "geohash": "wsjem",
        "precision": 5,
        "count": 1,
        "totalStudents": 56,
        "latitude": 23.07615,
        "longitude": 120.494647,
        "bounds": {
          "minLatitude": 23.07615,
          "maxLatitude": 23.07615,
          "minLongitude": 120.494647,
          "maxLongitude": 120.494647
        },
        "topSchools": [
          {
            "id": "114640",
            "name": "市立北寮國小",
            "townshipName": "南化區",
            "students": 56,
            "status": "正常"
          }
        ]
      },
      {
        "id": "5-wsjgb",
        "geohash": "wsjgb",
        "precision": 5,
        "count": 1,
        "totalStudents": 9,
        "latitude": 23.1735,
        "longitude": 120.595237,
        "bounds": {
          "minLatitude": 23.1735,
          "maxLatitude": 23.1735,
          "minLongitude": 120.595237,
          "maxLongitude": 120.595237
        },
        "topSchools": [
          {
            "id": "114643",
            "name": "市立瑞峰國小",
            "townshipName": "南化區",
            "students": 9,
            "status": "正常"
          }
        ]
      },
      {
        "id": "5-wsjeq",
        "geohash": "wsjeq",
        "precision": 5,
        "count": 1,
        "totalStudents": 0,
        "latitude": 23.074638,
        "longitude": 120.519172,
        "bounds": {
          "minLatitude": 23.074638,
          "maxLatitude": 23.074638,
          "minLongitude": 120.519172,
          "maxLongitude": 120.519172
        },
        "topSchools": [
          {
            "id": "114642",
            "name": "市立玉山國小",
            "townshipName": "南化區",
            "students": 0,
            "status": "待確認"
          }
        ]
      },
      {
        "id": "5-wsjt5",
        "geohash": "wsjt5",
        "precision": 5,
        "count": 1,
        "totalStudents": 63,
        "latitude": 23.384155,
        "longitude": 120.387476,
        "bounds": {
          "minLatitude": 23.384155,
          "maxLatitude": 23.384155,
          "minLongitude": 120.387476,
          "maxLongitude": 120.387476
        },
        "topSchools": [
          {
            "id": "114767",
            "name": "市立永安國小",
            "townshipName": "後壁區",
            "students": 63,
            "status": "正常"
          }
        ]
      },
      {
        "id": "5-wsjt4",
        "geohash": "wsjt4",
        "precision": 5,
        "count": 1,
        "totalStudents": 42,
        "latitude": 23.37902,
        "longitude": 120.339135,
        "bounds": {
          "minLatitude": 23.37902,
          "maxLatitude": 23.37902,
          "minLongitude": 120.339135,
          "maxLongitude": 120.339135
        },
        "topSchools": [
          {
            "id": "114764",
            "name": "市立菁寮國小",
            "townshipName": "後壁區",
            "students": 42,
            "status": "正常"
          }
        ]
      },
      {
        "id": "5-wsj7u",
        "geohash": "wsj7u",
        "precision": 5,
        "count": 1,
        "totalStudents": 53,
        "latitude": 23.188387,
        "longitude": 120.089069,
        "bounds": {
          "minLatitude": 23.188387,
          "maxLatitude": 23.188387,
          "minLongitude": 120.089069,
          "maxLongitude": 120.089069
        },
        "topSchools": [
          {
            "id": "114696",
            "name": "市立鯤鯓國小",
            "townshipName": "將軍區",
            "students": 53,
            "status": "正常"
          }
        ]
      },
      {
        "id": "5-wsjkp",
        "geohash": "wsjkp",
        "precision": 5,
        "count": 1,
        "totalStudents": 31,
        "latitude": 23.205402,
        "longitude": 120.206598,
        "bounds": {
          "minLatitude": 23.205402,
          "maxLatitude": 23.205402,
          "minLongitude": 120.206598,
          "maxLongitude": 120.206598
        },
        "topSchools": [
          {
            "id": "114665",
            "name": "市立港尾國小",
            "townshipName": "麻豆區",
            "students": 31,
            "status": "正常"
          }
        ]
      },
      {
        "id": "5-wsjdf",
        "geohash": "wsjdf",
        "precision": 5,
        "count": 1,
        "totalStudents": 83,
        "latitude": 23.02537,
        "longitude": 120.348774,
        "bounds": {
          "minLatitude": 23.02537,
          "maxLatitude": 23.02537,
          "minLongitude": 120.348774,
          "maxLongitude": 120.348774
        },
        "topSchools": [
          {
            "id": "114632",
            "name": "市立口埤實驗小學",
            "townshipName": "新化區",
            "students": 83,
            "status": "正常"
          }
        ]
      },
      {
        "id": "5-wsje4",
        "geohash": "wsje4",
        "precision": 5,
        "count": 1,
        "totalStudents": 75,
        "latitude": 23.068287,
        "longitude": 120.349523,
        "bounds": {
          "minLatitude": 23.068287,
          "maxLatitude": 23.068287,
          "minLongitude": 120.349523,
          "maxLongitude": 120.349523
        },
        "topSchools": [
          {
            "id": "114631",
            "name": "市立那拔國小",
            "townshipName": "新化區",
            "students": 75,
            "status": "正常"
          }
        ]
      }
    ],
    "6": [
      {
        "id": "6-wsj6z9",
        "geohash": "wsj6z9",
        "precision": 6,
        "count": 7,
        "totalStudents": 5364,
        "latitude": 22.990542,
        "longitude": 120.218642,
        "bounds": {
          "minLatitude": 22.988924,
          "maxLatitude": 22.994172,
          "minLongitude": 120.213594,
          "maxLongitude": 120.222811
        },
        "topSchools": [
          {
            "id": "210305",
            "name": "國立臺南一中",
            "townshipName": "東區",
            "students": 2058,
            "status": "正常"
          },
          {
            "id": "211301",
            "name": "私立長榮高中",
            "townshipName": "東區",
            "students": 1250,
            "status": "正常"
          },
          {
            "id": "211310",
            "name": "臺南市光華高中",
            "townshipName": "東區",
            "students": 1090,
            "status": "正常"
          },
          {
            "id": "211302",
            "name": "私立長榮女中",
            "townshipName": "東區",
            "students": 524,
            "status": "正常"
          }
        ]
      },
      {
        "id": "6-wsj6z2",
        "geohash": "wsj6z2",
        "precision": 6,
        "count": 5,
        "totalStudents": 11671,
        "latitude": 22.985969,
        "longitude": 120.206012,
        "bounds": {
          "minLatitude": 22.984099,
          "maxLatitude": 22.988676,
          "minLongitude": 120.202923,
          "maxLongitude": 120.209358
        },
        "topSchools": [
          {
            "id": "0036",
            "name": "國立臺南大學",
            "townshipName": "中西區",
            "students": 5976,
            "status": "正常"
          },
          {
            "id": "210306",
            "name": "國立臺南女中",
            "townshipName": "中西區",
            "students": 1939,
            "status": "正常"
          },
          {
            "id": "213509",
            "name": "市立建興國中",
            "townshipName": "中西區",
            "students": 1668,
            "status": "正常"
          },
          {
            "id": "213510",
            "name": "市立中山國中",
            "townshipName": "中西區",
            "students": 1116,
            "status": "正常"
          }
        ]
      },
      {
        "id": "6-wsj6z7",
        "geohash": "wsj6z7",
        "precision": 6,
        "count": 4,
        "totalStudents": 5223,
        "latitude": 23.00286,
        "longitude": 120.207199,
        "bounds": {
          "minLatitude": 23.000261,
          "maxLatitude": 23.00524,
          "minLongitude": 120.202151,
          "maxLongitude": 120.212333
        },
        "topSchools": [
          {
            "id": "213506",
            "name": "市立民德國中",
            "townshipName": "北區",
            "students": 1955,
            "status": "正常"
          },
          {
            "id": "210303",
            "name": "國立臺南二中",
            "townshipName": "北區",
            "students": 1940,
            "status": "正常"
          },
          {
            "id": "213616",
            "name": "市立立人國小",
            "townshipName": "北區",
            "students": 900,
            "status": "正常"
          },
          {
            "id": "213617",
            "name": "市立公園國小",
            "townshipName": "北區",
            "students": 428,
            "status": "正常"
          }
        ]
      },
      {
        "id": "6-wsjd3n",
        "geohash": "wsjd3n",
        "precision": 6,
        "count": 4,
        "totalStudents": 552,
        "latitude": 22.929071,
        "longitude": 120.281567,
        "bounds": {
          "minLatitude": 22.929066,
          "maxLatitude": 22.929086,
          "minLongitude": 120.281558,
          "maxLongitude": 120.281593
        },
        "topSchools": [
          {
            "id": "114344:國中",
            "name": "市立沙崙高中附設國中",
            "townshipName": "歸仁區",
            "students": 388,
            "status": "正常"
          },
          {
            "id": "114344:高中職",
            "name": "市立沙崙國際高中",
            "townshipName": "歸仁區",
            "students": 98,
            "status": "正常"
          },
          {
            "id": "114344:國小",
            "name": "市立沙崙國際高中附設國小",
            "townshipName": "歸仁區",
            "students": 66,
            "status": "正常"
          },
          {
            "id": "114544",
            "name": "市立沙崙國中",
            "townshipName": "歸仁區",
            "students": 0,
            "status": "待確認"
          }
        ]
      },
      {
        "id": "6-wsj6xp",
        "geohash": "wsj6xp",
        "precision": 6,
        "count": 3,
        "totalStudents": 3232,
        "latitude": 22.980122,
        "longitude": 120.198817,
        "bounds": {
          "minLatitude": 22.979338,
          "maxLatitude": 22.981606,
          "minLongitude": 120.196323,
          "maxLongitude": 120.200812
        },
        "topSchools": [
          {
            "id": "210309",
            "name": "國立家齊高中",
            "townshipName": "中西區",
            "students": 1709,
            "status": "正常"
          },
          {
            "id": "213504",
            "name": "市立大成國中",
            "townshipName": "南區",
            "students": 841,
            "status": "正常"
          },
          {
            "id": "213608",
            "name": "市立南區新興國小",
            "townshipName": "南區",
            "students": 682,
            "status": "正常"
          }
        ]
      },
      {
        "id": "6-wsj6zt",
        "geohash": "wsj6zt",
        "precision": 6,
        "count": 3,
        "totalStudents": 2321,
        "latitude": 23.013967,
        "longitude": 120.220146,
        "bounds": {
          "minLatitude": 23.012572,
          "maxLatitude": 23.014664,
          "minLongitude": 120.2178,
          "maxLongitude": 120.221319
        },
        "topSchools": [
          {
            "id": "213619",
            "name": "市立大光國小",
            "townshipName": "北區",
            "students": 861,
            "status": "正常"
          },
          {
            "id": "211304",
            "name": "財團法人聖功女中",
            "townshipName": "北區",
            "students": 767,
            "status": "正常"
          },
          {
            "id": "211304:國中",
            "name": "私立聖功女中附設國中部",
            "townshipName": "北區",
            "students": 693,
            "status": "正常"
          }
        ]
      },
      {
        "id": "6-wsj6zv",
        "geohash": "wsj6zv",
        "precision": 6,
        "count": 3,
        "totalStudents": 2511,
        "latitude": 23.012374,
        "longitude": 120.22893,
        "bounds": {
          "minLatitude": 23.010952,
          "maxLatitude": 23.015219,
          "minLongitude": 120.226678,
          "maxLongitude": 120.233433
        },
        "topSchools": [
          {
            "id": "110409",
            "name": "國立成大附屬南工",
            "townshipName": "永康區",
            "students": 2481,
            "status": "正常"
          },
          {
            "id": "211317:國中",
            "name": "私立崑山高中附設國中部",
            "townshipName": "北區",
            "students": 21,
            "status": "正常"
          },
          {
            "id": "211317",
            "name": "臺南市崑山高中",
            "townshipName": "北區",
            "students": 9,
            "status": "正常"
          }
        ]
      },
      {
        "id": "6-wsjdb5",
        "geohash": "wsjdb5",
        "precision": 6,
        "count": 3,
        "totalStudents": 1313,
        "latitude": 23.00257,
        "longitude": 120.239844,
        "bounds": {
          "minLatitude": 23.001113,
          "maxLatitude": 23.003299,
          "minLongitude": 120.239025,
          "maxLongitude": 120.240254
        },
        "topSchools": [
          {
            "id": "114627",
            "name": "市立永康區復興國小",
            "townshipName": "永康區",
            "students": 508,
            "status": "正常"
          },
          {
            "id": "114307:國中",
            "name": "市立永仁高中附設國中部",
            "townshipName": "永康區",
            "students": 414,
            "status": "正常"
          },
          {
            "id": "114307",
            "name": "市立永仁高中",
            "townshipName": "永康區",
            "students": 391,
            "status": "正常"
          }
        ]
      },
      {
        "id": "6-wsj6yb",
        "geohash": "wsj6yb",
        "precision": 6,
        "count": 3,
        "totalStudents": 1817,
        "latitude": 22.986916,
        "longitude": 120.179475,
        "bounds": {
          "minLatitude": 22.986916,
          "maxLatitude": 22.986916,
          "minLongitude": 120.179475,
          "maxLongitude": 120.179475
        },
        "topSchools": [
          {
            "id": "211320:國小",
            "name": "慈濟學校財團法人臺南市私立慈濟高級中學附設國小部",
            "townshipName": "安平區",
            "students": 645,
            "status": "正常"
          },
          {
            "id": "211320",
            "name": "財團法人慈濟高中",
            "townshipName": "安平區",
            "students": 605,
            "status": "正常"
          },
          {
            "id": "211320:國中",
            "name": "慈濟學校財團法人臺南市私立慈濟高級中學附設國中部",
            "townshipName": "安平區",
            "students": 567,
            "status": "正常"
          }
        ]
      },
      {
        "id": "6-wsj6xx",
        "geohash": "wsj6xx",
        "precision": 6,
        "count": 3,
        "totalStudents": 3247,
        "latitude": 22.980411,
        "longitude": 120.221855,
        "bounds": {
          "minLatitude": 22.979837,
          "maxLatitude": 22.98156,
          "minLongitude": 120.221535,
          "maxLongitude": 120.222495
        },
        "topSchools": [
          {
            "id": "211318:國中",
            "name": "私立德光高中附設國中部",
            "townshipName": "龍崎區",
            "students": 1365,
            "status": "正常"
          },
          {
            "id": "211318",
            "name": "私立德光高中",
            "townshipName": "東區",
            "students": 1108,
            "status": "正常"
          },
          {
            "id": "213502",
            "name": "市立忠孝國中",
            "townshipName": "東區",
            "students": 774,
            "status": "正常"
          }
        ]
      },
      {
        "id": "6-wsj6xq",
        "geohash": "wsj6xq",
        "precision": 6,
        "count": 3,
        "totalStudents": 1474,
        "latitude": 22.975209,
        "longitude": 120.202613,
        "bounds": {
          "minLatitude": 22.974197,
          "maxLatitude": 22.9768,
          "minLongitude": 120.202481,
          "maxLongitude": 120.202687
        },
        "topSchools": [
          {
            "id": "211412",
            "name": "私立亞洲餐旅",
            "townshipName": "南區",
            "students": 796,
            "status": "正常"
          },
          {
            "id": "211314",
            "name": "私立六信高中",
            "townshipName": "南區",
            "students": 508,
            "status": "正常"
          },
          {
            "id": "213607",
            "name": "市立志開實驗小學",
            "townshipName": "南區",
            "students": 170,
            "status": "正常"
          }
        ]
      },
      {
        "id": "6-wsje3q",
        "geohash": "wsje3q",
        "precision": 6,
        "count": 3,
        "totalStudents": 2565,
        "latitude": 23.107038,
        "longitude": 120.290937,
        "bounds": {
          "minLatitude": 23.107038,
          "maxLatitude": 23.107038,
          "minLongitude": 120.290937,
          "maxLongitude": 120.290937
        },
        "topSchools": [
          {
            "id": "110328:國小",
            "name": "國立南科高級實驗中學附設國小部",
            "townshipName": "新市區",
            "students": 1420,
            "status": "正常"
          },
          {
            "id": "110328:國中",
            "name": "國立南科高級實驗中學附設國中部",
            "townshipName": "新市區",
            "students": 733,
            "status": "正常"
          },
          {
            "id": "110328",
            "name": "國立南科國際實驗高中",
            "townshipName": "新市區",
            "students": 412,
            "status": "正常"
          }
        ]
      },
      {
        "id": "6-wsjsd5",
        "geohash": "wsjsd5",
        "precision": 6,
        "count": 3,
        "totalStudents": 1907,
        "latitude": 23.312533,
        "longitude": 120.323186,
        "bounds": {
          "minLatitude": 23.312184,
          "maxLatitude": 23.312707,
          "minLongitude": 120.322408,
          "maxLongitude": 120.324743
        },
        "topSchools": [
          {
            "id": "114533",
            "name": "市立新東國中",
            "townshipName": "新營區",
            "students": 1076,
            "status": "正常"
          },
          {
            "id": "111321",
            "name": "臺南市興國高中",
            "townshipName": "新營區",
            "students": 474,
            "status": "正常"
          },
          {
            "id": "111321:國中",
            "name": "私立興國高中附設國中",
            "townshipName": "新營區",
            "students": 357,
            "status": "正常"
          }
        ]
      },
      {
        "id": "6-wsjs9u",
        "geohash": "wsjs9u",
        "precision": 6,
        "count": 3,
        "totalStudents": 2049,
        "latitude": 23.31491,
        "longitude": 120.314766,
        "bounds": {
          "minLatitude": 23.313141,
          "maxLatitude": 23.316151,
          "minLongitude": 120.311842,
          "maxLongitude": 120.317058
        },
        "topSchools": [
          {
            "id": "114732",
            "name": "市立新進國小",
            "townshipName": "新營區",
            "students": 990,
            "status": "正常"
          },
          {
            "id": "110406",
            "name": "國立新營高工",
            "townshipName": "新營區",
            "students": 686,
            "status": "正常"
          },
          {
            "id": "111427",
            "name": "私立育德工家",
            "townshipName": "新營區",
            "students": 373,
            "status": "正常"
          }
        ]
      },
      {
        "id": "6-wsjd9m",
        "geohash": "wsjd9m",
        "precision": 6,
        "count": 3,
        "totalStudents": 2982,
        "latitude": 22.970865,
        "longitude": 120.295853,
        "bounds": {
          "minLatitude": 22.970218,
          "maxLatitude": 22.971895,
          "minLongitude": 120.293987,
          "maxLongitude": 120.297059
        },
        "topSchools": [
          {
            "id": "114503",
            "name": "市立歸仁國中",
            "townshipName": "歸仁區",
            "students": 1215,
            "status": "正常"
          },
          {
            "id": "110302",
            "name": "國立新豐高中",
            "townshipName": "歸仁區",
            "students": 946,
            "status": "正常"
          },
          {
            "id": "114609",
            "name": "市立歸仁國小",
            "townshipName": "歸仁區",
            "students": 821,
            "status": "正常"
          }
        ]
      },
      {
        "id": "6-wsj7tu",
        "geohash": "wsj7tu",
        "precision": 6,
        "count": 2,
        "totalStudents": 859,
        "latitude": 23.140854,
        "longitude": 120.140163,
        "bounds": {
          "minLatitude": 23.139462,
          "maxLatitude": 23.142246,
          "minLongitude": 120.138434,
          "maxLongitude": 120.141891
        },
        "topSchools": [
          {
            "id": "111502",
            "name": "私立昭明國中(代用)",
            "townshipName": "七股區",
            "students": 738,
            "status": "正常"
          },
          {
            "id": "114681",
            "name": "市立七股國小",
            "townshipName": "七股區",
            "students": 121,
            "status": "正常"
          }
        ]
      },
      {
        "id": "6-wsjs0y",
        "geohash": "wsjs0y",
        "precision": 6,
        "count": 2,
        "totalStudents": 647,
        "latitude": 23.239137,
        "longitude": 120.269469,
        "bounds": {
          "minLatitude": 23.239064,
          "maxLatitude": 23.23921,
          "minLongitude": 120.267426,
          "maxLongitude": 120.271513
        },
        "topSchools": [
          {
            "id": "114716",
            "name": "市立東興國小",
            "townshipName": "下營區",
            "students": 392,
            "status": "正常"
          },
          {
            "id": "114519",
            "name": "市立下營國中",
            "townshipName": "下營區",
            "students": 255,
            "status": "正常"
          }
        ]
      },
      {
        "id": "6-wsje6v",
        "geohash": "wsje6v",
        "precision": 6,
        "count": 2,
        "totalStudents": 249,
        "latitude": 23.102044,
        "longitude": 120.356983,
        "bounds": {
          "minLatitude": 23.100583,
          "maxLatitude": 23.103506,
          "minLongitude": 120.355644,
          "maxLongitude": 120.358321
        },
        "topSchools": [
          {
            "id": "114635",
            "name": "市立山上國小",
            "townshipName": "山上區",
            "students": 186,
            "status": "正常"
          },
          {
            "id": "114512",
            "name": "市立山上國中",
            "townshipName": "山上區",
            "students": 63,
            "status": "正常"
          }
        ]
      },
      {
        "id": "6-wsj6z0",
        "geohash": "wsj6z0",
        "precision": 6,
        "count": 2,
        "totalStudents": 1659,
        "latitude": 22.984819,
        "longitude": 120.200299,
        "bounds": {
          "minLatitude": 22.984088,
          "maxLatitude": 22.98555,
          "minLongitude": 120.199775,
          "maxLongitude": 120.200823
        },
        "topSchools": [
          {
            "id": "213623",
            "name": "市立進學國小",
            "townshipName": "中西區",
            "students": 863,
            "status": "正常"
          },
          {
            "id": "211407",
            "name": "私立南英商工",
            "townshipName": "中西區",
            "students": 796,
            "status": "正常"
          }
        ]
      },
      {
        "id": "6-wsjd2h",
        "geohash": "wsjd2h",
        "precision": 6,
        "count": 2,
        "totalStudents": 261,
        "latitude": 22.92193,
        "longitude": 120.23504,
        "bounds": {
          "minLatitude": 22.921266,
          "maxLatitude": 22.922594,
          "minLongitude": 120.234407,
          "maxLongitude": 120.235673
        },
        "topSchools": [
          {
            "id": "114502",
            "name": "市立仁德文賢國中",
            "townshipName": "仁德區",
            "students": 164,
            "status": "正常"
          },
          {
            "id": "114602",
            "name": "市立文賢國小",
            "townshipName": "仁德區",
            "students": 97,
            "status": "正常"
          }
        ]
      },
      {
        "id": "6-wsjs4s",
        "geohash": "wsjs4s",
        "precision": 6,
        "count": 2,
        "totalStudents": 1058,
        "latitude": 23.226582,
        "longitude": 120.349727,
        "bounds": {
          "minLatitude": 23.225772,
          "maxLatitude": 23.227392,
          "minLongitude": 120.348841,
          "maxLongitude": 120.350613
        },
        "topSchools": [
          {
            "id": "114717",
            "name": "市立六甲國小",
            "townshipName": "六甲區",
            "students": 707,
            "status": "正常"
          },
          {
            "id": "114520",
            "name": "市立六甲國中",
            "townshipName": "六甲區",
            "students": 351,
            "status": "正常"
          }
        ]
      },
      {
        "id": "6-wsj6zu",
        "geohash": "wsj6zu",
        "precision": 6,
        "count": 2,
        "totalStudents": 1131,
        "latitude": 23.007925,
        "longitude": 120.228232,
        "bounds": {
          "minLatitude": 23.005852,
          "maxLatitude": 23.009997,
          "minLongitude": 120.227435,
          "maxLongitude": 120.22903
        },
        "topSchools": [
          {
            "id": "211601",
            "name": "私立寶仁小學",
            "townshipName": "北區",
            "students": 1037,
            "status": "正常"
          },
          {
            "id": "211603",
            "name": "私立威爾森國小",
            "townshipName": "北區",
            "students": 94,
            "status": "正常"
          }
        ]
      },
      {
        "id": "6-wsj6zs",
        "geohash": "wsj6zs",
        "precision": 6,
        "count": 2,
        "totalStudents": 908,
        "latitude": 23.009008,
        "longitude": 120.216906,
        "bounds": {
          "minLatitude": 23.007872,
          "maxLatitude": 23.010144,
          "minLongitude": 120.216826,
          "maxLongitude": 120.216987
        },
        "topSchools": [
          {
            "id": "213618",
            "name": "市立開元國小",
            "townshipName": "北區",
            "students": 708,
            "status": "正常"
          },
          {
            "id": "213507",
            "name": "市立成功國中",
            "townshipName": "北區",
            "students": 200,
            "status": "正常"
          }
        ]
      },
      {
        "id": "6-wsj6zh",
        "geohash": "wsj6zh",
        "precision": 6,
        "count": 2,
        "totalStudents": 585,
        "latitude": 23.00573,
        "longitude": 120.19642,
        "bounds": {
          "minLatitude": 23.005566,
          "maxLatitude": 23.005895,
          "minLongitude": 120.196297,
          "maxLongitude": 120.196543
        },
        "topSchools": [
          {
            "id": "213517",
            "name": "市立文賢國中",
            "townshipName": "北區",
            "students": 330,
            "status": "正常"
          },
          {
            "id": "213620",
            "name": "市立中西區成功國小",
            "townshipName": "北區",
            "students": 255,
            "status": "正常"
          }
        ]
      },
      {
        "id": "6-wsj6zz",
        "geohash": "wsj6zz",
        "precision": 6,
        "count": 2,
        "totalStudents": 15763,
        "latitude": 23.022165,
        "longitude": 120.227973,
        "bounds": {
          "minLatitude": 23.021905,
          "maxLatitude": 23.022424,
          "minLongitude": 120.224505,
          "maxLongitude": 120.231442
        },
        "topSchools": [
          {
            "id": "1023",
            "name": "南臺科技大學",
            "townshipName": "永康區",
            "students": 14465,
            "status": "正常"
          },
          {
            "id": "114543",
            "name": "市立大橋國中",
            "townshipName": "永康區",
            "students": 1298,
            "status": "正常"
          }
        ]
      },
      {
        "id": "6-wsje04",
        "geohash": "wsje04",
        "precision": 6,
        "count": 2,
        "totalStudents": 9759,
        "latitude": 23.040169,
        "longitude": 120.237728,
        "bounds": {
          "minLatitude": 23.038404,
          "maxLatitude": 23.041935,
          "minLongitude": 120.237105,
          "maxLongitude": 120.238351
        },
        "topSchools": [
          {
            "id": "1051",
            "name": "臺南應用科技大學",
            "townshipName": "永康區",
            "students": 8648,
            "status": "正常"
          },
          {
            "id": "114625",
            "name": "市立三村國小",
            "townshipName": "永康區",
            "students": 1111,
            "status": "正常"
          }
        ]
      },
      {
        "id": "6-wsjdbr",
        "geohash": "wsjdbr",
        "precision": 6,
        "count": 2,
        "totalStudents": 3684,
        "latitude": 23.024445,
        "longitude": 120.254371,
        "bounds": {
          "minLatitude": 23.022854,
          "maxLatitude": 23.026035,
          "minLongitude": 120.252527,
          "maxLongitude": 120.256215
        },
        "topSchools": [
          {
            "id": "114623",
            "name": "市立永康國小",
            "townshipName": "永康區",
            "students": 2207,
            "status": "正常"
          },
          {
            "id": "110308",
            "name": "國立臺南大學附中",
            "townshipName": "永康區",
            "students": 1477,
            "status": "正常"
          }
        ]
      },
      {
        "id": "6-wsjdbs",
        "geohash": "wsjdbs",
        "precision": 6,
        "count": 2,
        "totalStudents": 3032,
        "latitude": 23.005966,
        "longitude": 120.262904,
        "bounds": {
          "minLatitude": 23.005427,
          "maxLatitude": 23.006505,
          "minLongitude": 120.258505,
          "maxLongitude": 120.267303
        },
        "topSchools": [
          {
            "id": "114624",
            "name": "市立大灣國小",
            "townshipName": "永康區",
            "students": 1547,
            "status": "正常"
          },
          {
            "id": "114776",
            "name": "市立崑山國小",
            "townshipName": "永康區",
            "students": 1485,
            "status": "正常"
          }
        ]
      },
      {
        "id": "6-wsjdbu",
        "geohash": "wsjdbu",
        "precision": 6,
        "count": 2,
        "totalStudents": 1920,
        "latitude": 23.005804,
        "longitude": 120.272791,
        "bounds": {
          "minLatitude": 23.005804,
          "maxLatitude": 23.005804,
          "minLongitude": 120.272791,
          "maxLongitude": 120.272791
        },
        "topSchools": [
          {
            "id": "114306:國中",
            "name": "市立大灣高中附設國中",
            "townshipName": "永康區",
            "students": 1282,
            "status": "正常"
          },
          {
            "id": "114306",
            "name": "市立大灣高中",
            "townshipName": "永康區",
            "students": 638,
            "status": "正常"
          }
        ]
      },
      {
        "id": "6-wsjsu5",
        "geohash": "wsjsu5",
        "precision": 6,
        "count": 2,
        "totalStudents": 783,
        "latitude": 23.353032,
        "longitude": 120.415094,
        "bounds": {
          "minLatitude": 23.352472,
          "maxLatitude": 23.353592,
          "minLongitude": 120.413918,
          "maxLongitude": 120.416271
        },
        "topSchools": [
          {
            "id": "114748",
            "name": "市立白河國小",
            "townshipName": "白河區",
            "students": 461,
            "status": "正常"
          },
          {
            "id": "110403",
            "name": "國立白河商工",
            "townshipName": "白河區",
            "students": 322,
            "status": "正常"
          }
        ]
      },
      {
        "id": "6-wsj6y6",
        "geohash": "wsj6y6",
        "precision": 6,
        "count": 2,
        "totalStudents": 1541,
        "latitude": 22.998431,
        "longitude": 120.167317,
        "bounds": {
          "minLatitude": 22.997085,
          "maxLatitude": 22.999777,
          "minLongitude": 120.166197,
          "maxLongitude": 120.168437
        },
        "topSchools": [
          {
            "id": "213511",
            "name": "市立安平國中",
            "townshipName": "安平區",
            "students": 1242,
            "status": "正常"
          },
          {
            "id": "213624",
            "name": "市立石門國小",
            "townshipName": "安平區",
            "students": 299,
            "status": "正常"
          }
        ]
      },
      {
        "id": "6-wsj6yc",
        "geohash": "wsj6yc",
        "precision": 6,
        "count": 2,
        "totalStudents": 1369,
        "latitude": 22.99327,
        "longitude": 120.181422,
        "bounds": {
          "minLatitude": 22.99315,
          "maxLatitude": 22.993389,
          "minLongitude": 120.180256,
          "maxLongitude": 120.182588
        },
        "topSchools": [
          {
            "id": "213505",
            "name": "市立金城國中",
            "townshipName": "安平區",
            "students": 726,
            "status": "正常"
          },
          {
            "id": "213615",
            "name": "市立新南國小",
            "townshipName": "安平區",
            "students": 643,
            "status": "正常"
          }
        ]
      },
      {
        "id": "6-wsj7ne",
        "geohash": "wsj7ne",
        "precision": 6,
        "count": 2,
        "totalStudents": 3583,
        "latitude": 23.048877,
        "longitude": 120.176252,
        "bounds": {
          "minLatitude": 23.048793,
          "maxLatitude": 23.048961,
          "minLongitude": 120.174265,
          "maxLongitude": 120.178239
        },