{
  "generatedAt": "2026-03-10T16:03:19.306Z",
  "county": {
    "id": "雲林縣",
    "countyCode": "10009",
    "legacyCountyId": "雲林縣",
    "name": "雲林縣",
    "shortLabel": "雲林",
    "region": "中部"
  },
  "precisions": {
    "5": [
      {
        "id": "5-wsjwu",
        "geohash": "wsjwu",
        "precision": 5,
        "count": 14,
        "totalStudents": 20700,
        "latitude": 23.709268,
        "longitude": 120.433328,
        "bounds": {
          "minLatitude": 23.696973,
          "maxLatitude": 23.718807,
          "minLongitude": 120.417545,
          "maxLongitude": 120.451074
        },
        "topSchools": [
          {
            "id": "0033",
            "name": "國立虎尾科技大學",
            "townshipName": "虎尾鎮",
            "students": 11975,
            "status": "正常"
          },
          {
            "id": "090315",
            "name": "國立虎尾高中",
            "townshipName": "虎尾鎮",
            "students": 1364,
            "status": "正常"
          },
          {
            "id": "094649",
            "name": "縣立立仁國小",
            "townshipName": "虎尾鎮",
            "students": 1350,
            "status": "正常"
          },
          {
            "id": "090401",
            "name": "國立虎尾農工",
            "townshipName": "虎尾鎮",
            "students": 1139,
            "status": "正常"
          }
        ]
      },
      {
        "id": "5-wsjw1",
        "geohash": "wsjw1",
        "precision": 5,
        "count": 10,
        "totalStudents": 4447,
        "latitude": 23.575428,
        "longitude": 120.300332,
        "bounds": {
          "minLatitude": 23.557113,
          "maxLatitude": 23.592991,
          "minLongitude": 120.284831,
          "maxLongitude": 120.318053
        },
        "topSchools": [
          {
            "id": "094708",
            "name": "縣立北辰國小",
            "townshipName": "北港鎮",
            "students": 1215,
            "status": "正常"
          },
          {
            "id": "094521",
            "name": "縣立建國國中",
            "townshipName": "北港鎮",
            "students": 882,
            "status": "正常"
          },
          {
            "id": "090404",
            "name": "國立北港農工",
            "townshipName": "北港鎮",
            "students": 729,
            "status": "正常"
          },
          {
            "id": "090306",
            "name": "國立北港高中",
            "townshipName": "北港鎮",
            "students": 651,
            "status": "正常"
          }
        ]
      },
      {
        "id": "5-wsjqr",
        "geohash": "wsjqr",
        "precision": 5,
        "count": 8,
        "totalStudents": 832,
        "latitude": 23.626843,
        "longitude": 120.214368,
        "bounds": {
          "minLatitude": 23.60029,
          "maxLatitude": 23.639473,
          "minLongitude": 120.190908,
          "maxLongitude": 120.229038
        },
        "topSchools": [
          {
            "id": "091311:國中",
            "name": "私立文生高中附設國中部",
            "townshipName": "四湖鄉",
            "students": 266,
            "status": "正常"
          },
          {
            "id": "091311",
            "name": "私立文生高中",
            "townshipName": "四湖鄉",
            "students": 226,
            "status": "正常"
          },
          {
            "id": "094724",
            "name": "縣立四湖國小",
            "townshipName": "四湖鄉",
            "students": 165,
            "status": "正常"
          },
          {
            "id": "094730",
            "name": "縣立南光國小",
            "townshipName": "四湖鄉",
            "students": 52,
            "status": "正常"
          }
        ]
      },
      {
        "id": "5-wsjwy",
        "geohash": "wsjwy",
        "precision": 5,
        "count": 8,
        "totalStudents": 15858,
        "latitude": 23.706147,
        "longitude": 120.532221,
        "bounds": {
          "minLatitude": 23.694957,
          "maxLatitude": 23.715281,
          "minLongitude": 120.517327,
          "maxLongitude": 120.539418
        },
        "topSchools": [
          {
            "id": "0023",
            "name": "國立雲林科技大學",
            "townshipName": "斗六市",
            "students": 10470,
            "status": "正常"
          },
          {
            "id": "094610",
            "name": "縣立公誠國小",
            "townshipName": "斗六市",
            "students": 1231,
            "status": "正常"
          },
          {
            "id": "091308:國中",
            "name": "私立正心高中附設國中部",
            "townshipName": "斗六市",
            "students": 1143,
            "status": "正常"
          },
          {
            "id": "091308",
            "name": "私立正心高中",
            "townshipName": "斗六市",
            "students": 834,
            "status": "正常"
          }
        ]
      },
      {
        "id": "5-wsjwz",
        "geohash": "wsjwz",
        "precision": 5,
        "count": 8,
        "totalStudents": 7229,
        "latitude": 23.710285,
        "longitude": 120.554906,
        "bounds": {
          "minLatitude": 23.702866,
          "maxLatitude": 23.721689,
          "minLongitude": 120.545788,
          "maxLongitude": 120.585333
        },
        "topSchools": [
          {
            "id": "094515",
            "name": "縣立斗六國中",
            "townshipName": "斗六市",
            "students": 1715,
            "status": "正常"
          },
          {
            "id": "090305",
            "name": "國立斗六高中",
            "townshipName": "斗六市",
            "students": 1523,
            "status": "正常"
          },
          {
            "id": "090403",
            "name": "國立斗六家商",
            "townshipName": "斗六市",
            "students": 971,
            "status": "正常"
          },
          {
            "id": "094756",
            "name": "縣立斗六國小",
            "townshipName": "斗六市",
            "students": 957,
            "status": "正常"
          }
        ]
      },
      {
        "id": "5-wsjwx",
        "geohash": "wsjwx",
        "precision": 5,
        "count": 8,
        "totalStudents": 1637,
        "latitude": 23.670724,
        "longitude": 120.561401,
        "bounds": {
          "minLatitude": 23.646551,
          "maxLatitude": 23.686176,
          "minLongitude": 120.551966,
          "maxLongitude": 120.568614
        },
        "topSchools": [
          {
            "id": "091601",
            "name": "私立維多利亞小學",
            "townshipName": "斗六市",
            "students": 546,
            "status": "正常"
          },
          {
            "id": "094527",
            "name": "縣立東和國中",
            "townshipName": "古坑鄉",
            "students": 284,
            "status": "正常"
          },
          {
            "id": "094613",
            "name": "縣立東和國小",
            "townshipName": "古坑鄉",
            "students": 206,
            "status": "正常"
          },
          {
            "id": "094612",
            "name": "縣立古坑國(中)小",
            "townshipName": "古坑鄉",
            "students": 159,
            "status": "正常"
          }
        ]
      },
      {
        "id": "5-wsjwe",
        "geohash": "wsjwe",
        "precision": 5,
        "count": 7,
        "totalStudents": 3075,
        "latitude": 23.674074,
        "longitude": 120.394747,
        "bounds": {
          "minLatitude": 23.650399,
          "maxLatitude": 23.68649,
          "minLongitude": 120.387637,
          "maxLongitude": 120.400631
        },
        "topSchools": [
          {
            "id": "090413",
            "name": "國立土庫商工",
            "townshipName": "土庫鎮",
            "students": 915,
            "status": "正常"
          },
          {
            "id": "094659",
            "name": "縣立土庫國小",
            "townshipName": "土庫鎮",
            "students": 657,
            "status": "正常"
          },
          {
            "id": "094525",
            "name": "縣立土庫國中",
            "townshipName": "土庫鎮",
            "students": 530,
            "status": "正常"
          },
          {
            "id": "091307:國中",
            "name": "私立永年高中附設國中部",
            "townshipName": "土庫鎮",
            "students": 497,
            "status": "正常"
          }
        ]
      },
      {
        "id": "5-wsjwt",
        "geohash": "wsjwt",
        "precision": 5,
        "count": 7,
        "totalStudents": 3174,
        "latitude": 23.674618,
        "longitude": 120.472844,
        "bounds": {
          "minLatitude": 23.647227,
          "maxLatitude": 23.686154,
          "minLongitude": 120.459271,
          "maxLongitude": 120.479536
        },
        "topSchools": [
          {
            "id": "094631",
            "name": "縣立斗南國小",
            "townshipName": "斗南鎮",
            "students": 777,
            "status": "正常"
          },
          {
            "id": "094636",
            "name": "縣立僑真國小",
            "townshipName": "斗南鎮",
            "students": 654,
            "status": "正常"
          },
          {
            "id": "094301",
            "name": "縣立斗南高中",
            "townshipName": "斗南鎮",
            "students": 569,
            "status": "正常"
          },
          {
            "id": "094301:國中",
            "name": "縣立斗南高中附設國中部",
            "townshipName": "斗南鎮",
            "students": 469,
            "status": "正常"
          }
        ]
      },
      {
        "id": "5-wsjz0",
        "geohash": "wsjz0",
        "precision": 5,
        "count": 7,
        "totalStudents": 1760,
        "latitude": 23.756396,
        "longitude": 120.604545,
        "bounds": {
          "minLatitude": 23.743894,
          "maxLatitude": 23.767631,
          "minLongitude": 120.591737,
          "maxLongitude": 120.61771
        },
        "topSchools": [
          {
            "id": "091502",
            "name": "私立淵明國中(代用)",
            "townshipName": "林內鄉",
            "students": 674,
            "status": "正常"
          },
          {
            "id": "091318",
            "name": "財團法人義峰高中",
            "townshipName": "林內鄉",
            "students": 543,
            "status": "正常"
          },
          {
            "id": "094625",
            "name": "縣立林內國小",
            "townshipName": "林內鄉",
            "students": 205,
            "status": "正常"
          },
          {
            "id": "094530",
            "name": "縣立林內國中",
            "townshipName": "林內鄉",
            "students": 137,
            "status": "正常"
          }
        ]
      },
      {
        "id": "5-wsjx5",
        "geohash": "wsjx5",
        "precision": 5,
        "count": 6,
        "totalStudents": 732,
        "latitude": 23.753687,
        "longitude": 120.393521,
        "bounds": {
          "minLatitude": 23.733108,
          "maxLatitude": 23.773276,
          "minLongitude": 120.371179,
          "maxLongitude": 120.408267
        },
        "topSchools": [
          {
            "id": "094508",
            "name": "縣立二崙國中",
            "townshipName": "二崙鄉",
            "students": 394,
            "status": "正常"
          },
          {
            "id": "094701",
            "name": "縣立東興國小",
            "townshipName": "崙背鄉",
            "students": 186,
            "status": "正常"
          },
          {
            "id": "094652",
            "name": "縣立光復國小",
            "townshipName": "虎尾鎮",
            "students": 61,
            "status": "正常"
          },
          {
            "id": "094695",
            "name": "縣立來惠國小",
            "townshipName": "二崙鄉",
            "students": 52,
            "status": "正常"
          }
        ]
      },
      {
        "id": "5-wsjxk",
        "geohash": "wsjxk",
        "precision": 5,
        "count": 6,
        "totalStudents": 2698,
        "latitude": 23.800669,
        "longitude": 120.436821,
        "bounds": {
          "minLatitude": 23.788283,
          "maxLatitude": 23.817156,
          "minLongitude": 120.413948,
          "maxLongitude": 120.451994
        },
        "topSchools": [
          {
            "id": "091503",
            "name": "私立東南國中(代用)",
            "townshipName": "西螺鎮",
            "students": 1403,
            "status": "正常"
          },
          {
            "id": "094680",
            "name": "縣立文昌國小",
            "townshipName": "西螺鎮",
            "students": 853,
            "status": "正常"
          },
          {
            "id": "094683",
            "name": "縣立安定國小",
            "townshipName": "西螺鎮",
            "students": 188,
            "status": "正常"
          },
          {
            "id": "094692",
            "name": "縣立永定國小",
            "townshipName": "二崙鄉",
            "students": 100,
            "status": "正常"
          }
        ]
      },
      {
        "id": "5-wsjmz",
        "geohash": "wsjmz",
        "precision": 5,
        "count": 6,
        "totalStudents": 399,
        "latitude": 23.527004,
        "longitude": 120.21945,
        "bounds": {
          "minLatitude": 23.513987,
          "maxLatitude": 23.546916,
          "minLongitude": 120.194779,
          "maxLongitude": 120.230108
        },
        "topSchools": [
          {
            "id": "094326:國中",
            "name": "縣立蔦松高中附設國中部",
            "townshipName": "水林鄉",
            "students": 173,
            "status": "正常"
          },
          {
            "id": "094326",
            "name": "縣立蔦松藝術高中",
            "townshipName": "水林鄉",
            "students": 111,
            "status": "正常"
          },
          {
            "id": "094746",
            "name": "縣立蔦松國小",
            "townshipName": "水林鄉",
            "students": 41,
            "status": "正常"
          },
          {
            "id": "094522",
            "name": "縣立宜梧國中",
            "townshipName": "口湖鄉",
            "students": 38,
            "status": "正常"
          }
        ]
      },
      {
        "id": "5-wsjwq",
        "geohash": "wsjwq",
        "precision": 5,
        "count": 6,
        "totalStudents": 827,
        "latitude": 23.631145,
        "longitude": 120.524847,
        "bounds": {
          "minLatitude": 23.612198,
          "maxLatitude": 23.635509,
          "minLongitude": 120.521088,
          "maxLongitude": 120.536929
        },
        "topSchools": [
          {
            "id": "091602",
            "name": "私立福智國小",
            "townshipName": "古坑鄉",
            "students": 353,
            "status": "正常"
          },
          {
            "id": "091319",
            "name": "福智高中",
            "townshipName": "古坑鄉",
            "students": 201,
            "status": "正常"
          },
          {
            "id": "091506",
            "name": "私立福智實驗國中",
            "townshipName": "古坑鄉",
            "students": 139,
            "status": "正常"
          },
          {
            "id": "091319:國中",
            "name": "私立福智高中附設國中部",
            "townshipName": "古坑鄉",
            "students": 114,
            "status": "正常"
          }
        ]
      },
      {
        "id": "5-wsjqn",
        "geohash": "wsjqn",
        "precision": 5,
        "count": 5,
        "totalStudents": 327,
        "latitude": 23.576852,
        "longitude": 120.173626,
        "bounds": {
          "minLatitude": 23.559624,
          "maxLatitude": 23.588099,
          "minLongitude": 120.154148,
          "maxLongitude": 120.184105
        },
        "topSchools": [
          {
            "id": "094523",
            "name": "縣立口湖國中",
            "townshipName": "口湖鄉",
            "students": 126,
            "status": "正常"
          },
          {
            "id": "094735",
            "name": "縣立口湖國小",
            "townshipName": "口湖鄉",
            "students": 94,
            "status": "正常"
          },
          {
            "id": "094740",
            "name": "縣立崇文國小",
            "townshipName": "口湖鄉",
            "students": 50,
            "status": "正常"
          },
          {
            "id": "094737",
            "name": "縣立金湖國小",
            "townshipName": "口湖鄉",
            "students": 32,
            "status": "正常"
          }
        ]
      },
      {
        "id": "5-wsjw9",
        "geohash": "wsjw9",
        "precision": 5,
        "count": 5,
        "totalStudents": 619,
        "latitude": 23.663301,
        "longitude": 120.300734,
        "bounds": {
          "minLatitude": 23.645685,
          "maxLatitude": 23.682676,
          "minLongitude": 120.280388,
          "maxLongitude": 120.316567
        },
        "topSchools": [
          {
            "id": "094715",
            "name": "縣立元長國小",
            "townshipName": "元長鄉",
            "students": 328,
            "status": "正常"
          },
          {
            "id": "094514",
            "name": "縣立元長國中",
            "townshipName": "元長鄉",
            "students": 182,
            "status": "正常"
          },
          {
            "id": "094672",
            "name": "縣立明倫國小",
            "townshipName": "東勢鄉",
            "students": 49,
            "status": "正常"
          },
          {
            "id": "094722",
            "name": "縣立信義國小",
            "townshipName": "元長鄉",
            "students": 37,
            "status": "正常"
          }
        ]
      },
      {
        "id": "5-wsjw3",
        "geohash": "wsjw3",
        "precision": 5,
        "count": 5,
        "totalStudents": 161,
        "latitude": 23.619329,
        "longitude": 120.291361,
        "bounds": {
          "minLatitude": 23.599326,
          "maxLatitude": 23.640895,
          "minLongitude": 120.278642,
          "maxLongitude": 120.314887
        },
        "topSchools": [
          {
            "id": "094709",
            "name": "縣立好收國小",
            "townshipName": "北港鎮",
            "students": 75,
            "status": "正常"
          },
          {
            "id": "094720",
            "name": "縣立忠孝國小",
            "townshipName": "元長鄉",
            "students": 41,
            "status": "正常"
          },
          {
            "id": "094711",
            "name": "縣立東榮國小",
            "townshipName": "北港鎮",
            "students": 31,
            "status": "正常"
          },
          {
            "id": "094721",
            "name": "縣立仁愛國小",
            "townshipName": "元長鄉",
            "students": 14,
            "status": "正常"
          }
        ]
      },
      {
        "id": "5-wsjqw",
        "geohash": "wsjqw",
        "precision": 5,
        "count": 5,
        "totalStudents": 192,
        "latitude": 23.658093,
        "longitude": 120.175141,
        "bounds": {
          "minLatitude": 23.643037,
          "maxLatitude": 23.683266,
          "minLongitude": 120.155927,
          "maxLongitude": 120.189045
        },
        "topSchools": [
          {
            "id": "094504",
            "name": "縣立飛沙國中",
            "townshipName": "四湖鄉",
            "students": 82,
            "status": "正常"
          },
          {
            "id": "094728",
            "name": "縣立三崙國小",
            "townshipName": "四湖鄉",
            "students": 35,
            "status": "正常"
          },
          {
            "id": "094679",
            "name": "縣立尚德國小",
            "townshipName": "臺西鄉",
            "students": 34,
            "status": "正常"
          },
          {
            "id": "094727",
            "name": "縣立林厝國小",
            "townshipName": "四湖鄉",
            "students": 22,
            "status": "正常"
          }
        ]
      },
      {
        "id": "5-wsjwf",
        "geohash": "wsjwf",
        "precision": 5,
        "count": 4,
        "totalStudents": 594,
        "latitude": 23.701809,
        "longitude": 120.349108,
        "bounds": {
          "minLatitude": 23.686785,
          "maxLatitude": 23.720919,
          "minLongitude": 120.338558,
          "maxLongitude": 120.356829
        },
        "topSchools": [
          {
            "id": "094660",
            "name": "縣立馬光國小",
            "townshipName": "土庫鎮",
            "students": 229,
            "status": "正常"
          },
          {
            "id": "094528",
            "name": "縣立馬光國中",
            "townshipName": "土庫鎮",
            "students": 219,
            "status": "正常"
          },
          {
            "id": "094669",
            "name": "縣立潮厝華德福實驗國小",
            "townshipName": "褒忠鄉",
            "students": 116,
            "status": "正常"
          },
          {
            "id": "094665",
            "name": "縣立宏崙國小",
            "townshipName": "土庫鎮",
            "students": 30,
            "status": "正常"
          }
        ]
      },
      {
        "id": "5-wsjwv",
        "geohash": "wsjwv",
        "precision": 5,
        "count": 4,
        "totalStudents": 649,
        "latitude": 23.717915,
        "longitude": 120.471562,
        "bounds": {
          "minLatitude": 23.691786,
          "maxLatitude": 23.729139,
          "minLongitude": 120.456482,
          "maxLongitude": 120.485128
        },
        "topSchools": [
          {
            "id": "094635",
            "name": "縣立文安國小",
            "townshipName": "斗南鎮",
            "students": 233,
            "status": "正常"
          },
          {
            "id": "094517",
            "name": "縣立虎尾國中",
            "townshipName": "虎尾鎮",
            "students": 227,
            "status": "正常"
          },
          {
            "id": "094651",
            "name": "縣立中溪國小",
            "townshipName": "虎尾鎮",
            "students": 108,
            "status": "正常"
          },
          {
            "id": "094656",
            "name": "縣立惠來國小",
            "townshipName": "虎尾鎮",
            "students": 81,
            "status": "正常"
          }
        ]
      },
      {
        "id": "5-wsjxm",
        "geohash": "wsjxm",
        "precision": 5,
        "count": 4,
        "totalStudents": 2454,
        "latitude": 23.793038,
        "longitude": 120.470287,
        "bounds": {
          "minLatitude": 23.78949,
          "maxLatitude": 23.794941,
          "minLongitude": 120.460157,
          "maxLongitude": 120.48638
        },
        "topSchools": [
          {
            "id": "090402",
            "name": "國立西螺農工",
            "townshipName": "西螺鎮",
            "students": 1438,
            "status": "正常"
          },
          {
            "id": "094681",
            "name": "縣立中山國小",
            "townshipName": "西螺鎮",
            "students": 658,
            "status": "正常"
          },
          {
            "id": "094519",
            "name": "縣立西螺國中",
            "townshipName": "西螺鎮",
            "students": 301,
            "status": "正常"
          },
          {
            "id": "094685",
            "name": "縣立大新國小",
            "townshipName": "西螺鎮",
            "students": 57,
            "status": "正常"
          }
        ]
      },
      {
        "id": "5-wsjxj",
        "geohash": "wsjxj",
        "precision": 5,
        "count": 4,
        "totalStudents": 274,
        "latitude": 23.759553,
        "longitude": 120.475634,
        "bounds": {
          "minLatitude": 23.748573,
          "maxLatitude": 23.766836,
          "minLongitude": 120.45815,
          "maxLongitude": 120.492982
        },
        "topSchools": [
          {
            "id": "094642",
            "name": "縣立育仁國小",
            "townshipName": "莿桐鄉",
            "students": 102,
            "status": "正常"
          },
          {
            "id": "094641",
            "name": "縣立僑和國小",
            "townshipName": "莿桐鄉",
            "students": 90,
            "status": "正常"
          },
          {
            "id": "094682",
            "name": "縣立廣興國小",
            "townshipName": "西螺鎮",
            "students": 54,
            "status": "正常"
          },
          {
            "id": "094686",
            "name": "縣立文賢國小",
            "townshipName": "西螺鎮",
            "students": 28,
            "status": "正常"
          }
        ]
      },
      {
        "id": "5-wsjx0",
        "geohash": "wsjx0",
        "precision": 5,
        "count": 4,
        "totalStudents": 2234,
        "latitude": 23.759907,
        "longitude": 120.256168,
        "bounds": {
          "minLatitude": 23.750039,
          "maxLatitude": 23.773892,
          "minLongitude": 120.252231,
          "maxLongitude": 120.265554
        },
        "topSchools": [
          {
            "id": "094702",
            "name": "縣立麥寮國小",
            "townshipName": "麥寮鄉",
            "students": 1058,
            "status": "正常"
          },
          {
            "id": "094307:國中",
            "name": "縣立麥寮高中附設國中部",
            "townshipName": "麥寮鄉",
            "students": 711,
            "status": "正常"
          },
          {
            "id": "094307",
            "name": "縣立麥寮高中",
            "townshipName": "麥寮鄉",
            "students": 405,
            "status": "正常"
          },
          {
            "id": "094704",
            "name": "縣立明禮國小",
            "townshipName": "麥寮鄉",
            "students": 60,
            "status": "正常"
          }
        ]
      },
      {
        "id": "5-wsjwc",
        "geohash": "wsjwc",
        "precision": 5,
        "count": 4,
        "totalStudents": 478,
        "latitude": 23.706696,
        "longitude": 120.303353,
        "bounds": {
          "minLatitude": 23.69918,
          "maxLatitude": 23.722372,
          "minLongitude": 120.283893,
          "maxLongitude": 120.310796
        },
        "topSchools": [
          {
            "id": "094666",
            "name": "縣立褒忠國小",
            "townshipName": "褒忠鄉",
            "students": 326,
            "status": "正常"
          },
          {
            "id": "094509",
            "name": "縣立褒忠國中",
            "townshipName": "褒忠鄉",
            "students": 91,
            "status": "正常"
          },
          {
            "id": "094667",
            "name": "縣立龍巖國小",
            "townshipName": "褒忠鄉",
            "students": 35,
            "status": "正常"
          },
          {
            "id": "094668",
            "name": "縣立復興國小",
            "townshipName": "褒忠鄉",
            "students": 26,
            "status": "正常"
          }
        ]
      },
      {
        "id": "5-wsjx6",
        "geohash": "wsjx6",
        "precision": 5,
        "count": 3,
        "totalStudents": 195,
        "latitude": 23.794401,
        "longitude": 120.350331,
        "bounds": {
          "minLatitude": 23.785694,
          "maxLatitude": 23.804787,
          "minLongitude": 120.330184,
          "maxLongitude": 120.365498
        },
        "topSchools": [
          {
            "id": "094700",
            "name": "縣立陽明國小",
            "townshipName": "崙背鄉",
            "students": 94,
            "status": "正常"
          },
          {
            "id": "094699",
            "name": "縣立中和國小",
            "townshipName": "崙背鄉",
            "students": 55,
            "status": "正常"
          },
          {
            "id": "094694",
            "name": "縣立旭光國小",
            "townshipName": "二崙鄉",
            "students": 46,
            "status": "正常"
          }
        ]
      },
      {
        "id": "5-wsjqq",
        "geohash": "wsjqq",
        "precision": 5,
        "count": 3,
        "totalStudents": 216,
        "latitude": 23.61566,
        "longitude": 120.163288,
        "bounds": {
          "minLatitude": 23.600475,
          "maxLatitude": 23.633968,
          "minLongitude": 120.151849,
          "maxLongitude": 120.179436
        },
        "topSchools": [
          {
            "id": "094738",
            "name": "縣立下崙國小",
            "townshipName": "口湖鄉",
            "students": 148,
            "status": "正常"
          },
          {
            "id": "094729",
            "name": "縣立建陽國小",
            "townshipName": "四湖鄉",
            "students": 37,
            "status": "正常"
          },
          {
            "id": "094743",
            "name": "縣立頂湖國小",
            "townshipName": "口湖鄉",
            "students": 31,
            "status": "正常"
          }
        ]
      },
      {
        "id": "5-wsjwg",
        "geohash": "wsjwg",
        "precision": 5,
        "count": 3,
        "totalStudents": 433,
        "latitude": 23.703275,
        "longitude": 120.38925,
        "bounds": {
          "minLatitude": 23.699507,
          "maxLatitude": 23.708544,
          "minLongitude": 120.371368,
          "maxLongitude": 120.408062
        },
        "topSchools": [
          {
            "id": "094657",
            "name": "縣立拯民國小",
            "townshipName": "虎尾鎮",
            "students": 196,
            "status": "正常"
          },
          {
            "id": "094650",
            "name": "縣立大屯國小",
            "townshipName": "虎尾鎮",
            "students": 124,
            "status": "正常"
          },
          {
            "id": "094662",
            "name": "縣立後埔國小",
            "townshipName": "土庫鎮",
            "students": 113,
            "status": "正常"
          }
        ]
      },
      {
        "id": "5-wsjwd",
        "geohash": "wsjwd",
        "precision": 5,
        "count": 3,
        "totalStudents": 66,
        "latitude": 23.661714,
        "longitude": 120.345038,
        "bounds": {
          "minLatitude": 23.656953,
          "maxLatitude": 23.669629,
          "minLongitude": 120.336255,
          "maxLongitude": 120.349524
        },
        "topSchools": [
          {
            "id": "094723",
            "name": "縣立和平國小",
            "townshipName": "元長鄉",
            "students": 26,
            "status": "正常"
          },
          {
            "id": "094661",
            "name": "縣立埤腳國小",
            "townshipName": "土庫鎮",
            "students": 20,
            "status": "正常"
          },
          {
            "id": "094663",
            "name": "縣立秀潭國小",
            "townshipName": "土庫鎮",
            "students": 20,
            "status": "正常"
          }
        ]
      },
      {
        "id": "5-wsjws",
        "geohash": "wsjws",
        "precision": 5,
        "count": 3,
        "totalStudents": 427,
        "latitude": 23.660949,
        "longitude": 120.433502,
        "bounds": {
          "minLatitude": 23.644542,
          "maxLatitude": 23.676281,
          "minLongitude": 120.422689,
          "maxLongitude": 120.44621
        },
        "topSchools": [
          {
            "id": "094643",
            "name": "縣立大埤國小",
            "townshipName": "大埤鄉",
            "students": 293,
            "status": "正常"
          },
          {
            "id": "094632",
            "name": "縣立大東國小",
            "townshipName": "斗南鎮",
            "students": 80,
            "status": "正常"
          },
          {
            "id": "094645",
            "name": "縣立仁和國小",
            "townshipName": "大埤鄉",
            "students": 54,
            "status": "正常"
          }
        ]
      },
      {
        "id": "5-wsjw6",
        "geohash": "wsjw6",
        "precision": 5,
        "count": 3,
        "totalStudents": 182,
        "latitude": 23.627744,
        "longitude": 120.348254,
        "bounds": {
          "minLatitude": 23.617431,
          "maxLatitude": 23.637671,
          "minLongitude": 120.334252,
          "maxLongitude": 120.359026
        },
        "topSchools": [
          {
            "id": "094717",
            "name": "縣立客厝國小",
            "townshipName": "元長鄉",
            "students": 88,
            "status": "正常"
          },
          {
            "id": "094716",
            "name": "縣立新生國小",
            "townshipName": "元長鄉",
            "students": 70,
            "status": "正常"
          },
          {
            "id": "094719",
            "name": "縣立仁德國小",
            "townshipName": "元長鄉",
            "students": 24,
            "status": "正常"
          }
        ]
      },
      {
        "id": "5-wsjyb",
        "geohash": "wsjyb",
        "precision": 5,
        "count": 3,
        "totalStudents": 322,
        "latitude": 23.704072,
        "longitude": 120.59158,
        "bounds": {
          "minLatitude": 23.687007,
          "maxLatitude": 23.722592,
          "minLongitude": 120.586484,
          "maxLongitude": 120.601433
        },
        "topSchools": [
          {
            "id": "094529",
            "name": "縣立石榴國中",
            "townshipName": "斗六市",
            "students": 256,
            "status": "正常"
          },
          {
            "id": "094604",
            "name": "縣立梅林國小",
            "townshipName": "斗六市",
            "students": 43,
            "status": "正常"
          },
          {
            "id": "094624",
            "name": "縣立新光國小",
            "townshipName": "古坑鄉",
            "students": 23,
            "status": "正常"
          }
        ]
      },
      {
        "id": "5-wsjww",
        "geohash": "wsjww",
        "precision": 5,
        "count": 3,
        "totalStudents": 311,
        "latitude": 23.669356,
        "longitude": 120.520871,
        "bounds": {
          "minLatitude": 23.657268,
          "maxLatitude": 23.676933,
          "minLongitude": 120.511367,
          "maxLongitude": 120.537586
        },
        "topSchools": [
          {
            "id": "094603",
            "name": "縣立溝壩國小",
            "townshipName": "斗六市",
            "students": 217,
            "status": "正常"
          },
          {
            "id": "094634",
            "name": "縣立重光國小",
            "townshipName": "斗南鎮",
            "students": 49,
            "status": "正常"
          },
          {
            "id": "094611",
            "name": "縣立久安國小",
            "townshipName": "斗六市",
            "students": 45,
            "status": "正常"
          }
        ]
      },
      {
        "id": "5-wsjxp",
        "geohash": "wsjxp",
        "precision": 5,
        "count": 3,
        "totalStudents": 390,
        "latitude": 23.75801,
        "longitude": 120.56597,
        "bounds": {
          "minLatitude": 23.741155,
          "maxLatitude": 23.768192,
          "minLongitude": 120.55533,
          "maxLongitude": 120.57943
        },
        "topSchools": [
          {
            "id": "094606",
            "name": "縣立溪洲國小",
            "townshipName": "斗六市",
            "students": 213,
            "status": "正常"
          },
          {
            "id": "094640",
            "name": "縣立六合國小",
            "townshipName": "莿桐鄉",
            "students": 93,
            "status": "正常"
          },
          {
            "id": "094626",
            "name": "縣立重興國小",
            "townshipName": "林內鄉",
            "students": 84,
            "status": "正常"
          }
        ]
      },
      {
        "id": "5-wsjw2",
        "geohash": "wsjw2",
        "precision": 5,
        "count": 3,
        "totalStudents": 109,
        "latitude": 23.615768,
        "longitude": 120.248519,
        "bounds": {
          "minLatitude": 23.604266,
          "maxLatitude": 23.622435,
          "minLongitude": 120.241526,
          "maxLongitude": 120.261366
        },
        "topSchools": [
          {
            "id": "094748",
            "name": "縣立宏仁國小",
            "townshipName": "水林鄉",
            "students": 49,
            "status": "正常"
          },
          {
            "id": "094731",
            "name": "縣立鹿場國小",
            "townshipName": "四湖鄉",
            "students": 39,
            "status": "正常"
          },
          {
            "id": "094750",
            "name": "縣立誠正國小",
            "townshipName": "水林鄉",
            "students": 21,
            "status": "正常"
          }
        ]
      },
      {
        "id": "5-wsjwr",
        "geohash": "wsjwr",
        "precision": 5,
        "count": 3,
        "totalStudents": 283,
        "latitude": 23.617824,
        "longitude": 120.547977,
        "bounds": {
          "minLatitude": 23.613618,
          "maxLatitude": 23.626235,
          "minLongitude": 120.545041,
          "maxLongitude": 120.553848
        },
        "topSchools": [
          {
            "id": "094308:國中",
            "name": "縣立古坑華德福實驗高中附設國中部",
            "townshipName": "古坑鄉",
            "students": 113,
            "status": "正常"
          },
          {
            "id": "094614",
            "name": "縣立永光國小",
            "townshipName": "古坑鄉",
            "students": 111,
            "status": "正常"
          },
          {
            "id": "094308",
            "name": "縣立古坑華德福實驗高級中學",
            "townshipName": "古坑鄉",
            "students": 59,
            "status": "正常"
          }
        ]
      },
      {
        "id": "5-wsjw8",
        "geohash": "wsjw8",
        "precision": 5,
        "count": 3,
        "totalStudents": 325,
        "latitude": 23.666342,
        "longitude": 120.261898,
        "bounds": {
          "minLatitude": 23.651898,
          "maxLatitude": 23.674158,
          "minLongitude": 120.25598,
          "maxLongitude": 120.27216
        },
        "topSchools": [
          {
            "id": "094670",
            "name": "縣立東勢國小",
            "townshipName": "東勢鄉",
            "students": 196,
            "status": "正常"
          },
          {
            "id": "094513",
            "name": "縣立東勢國中",
            "townshipName": "東勢鄉",
            "students": 113,
            "status": "正常"
          },
          {
            "id": "094725",
            "name": "縣立東光國小",
            "townshipName": "四湖鄉",
            "students": 16,
            "status": "正常"
          }
        ]
      },
      {
        "id": "5-wsjwb",
        "geohash": "wsjwb",
        "precision": 5,
        "count": 3,
        "totalStudents": 91,
        "latitude": 23.702119,
        "longitude": 120.251422,
        "bounds": {
          "minLatitude": 23.689823,
          "maxLatitude": 23.711514,
          "minLongitude": 120.239272,
          "maxLongitude": 120.265945
        },
        "topSchools": [
          {
            "id": "094671",
            "name": "縣立安南國小",
            "townshipName": "東勢鄉",
            "students": 36,
            "status": "正常"
          },
          {
            "id": "094673",
            "name": "縣立同安國小",
            "townshipName": "東勢鄉",
            "students": 30,
            "status": "正常"
          },
          {
            "id": "094674",
            "name": "縣立龍潭國小",
            "townshipName": "東勢鄉",
            "students": 25,
            "status": "正常"
          }
        ]
      },
      {
        "id": "5-wsjxn",
        "geohash": "wsjxn",
        "precision": 5,
        "count": 3,
        "totalStudents": 901,
        "latitude": 23.748192,
        "longitude": 120.506408,
        "bounds": {
          "minLatitude": 23.737419,
          "maxLatitude": 23.757184,
          "minLongitude": 120.498569,
          "maxLongitude": 120.513474
        },
        "topSchools": [
          {
            "id": "094637",
            "name": "縣立莿桐國小",
            "townshipName": "莿桐鄉",
            "students": 470,
            "status": "正常"
          },
          {
            "id": "094510",
            "name": "縣立莿桐國中",
            "townshipName": "莿桐鄉",
            "students": 282,
            "status": "正常"
          },
          {
            "id": "094639",
            "name": "縣立大美國小",
            "townshipName": "莿桐鄉",
            "students": 149,
            "status": "正常"
          }
        ]
      },
      {
        "id": "5-wsjqz",
        "geohash": "wsjqz",
        "precision": 5,
        "count": 3,
        "totalStudents": 575,
        "latitude": 23.707896,
        "longitude": 120.200295,
        "bounds": {
          "minLatitude": 23.701546,
          "maxLatitude": 23.720315,
          "minLongitude": 120.191839,
          "maxLongitude": 120.20947
        },
        "topSchools": [
          {
            "id": "094675",
            "name": "縣立臺西國小",
            "townshipName": "臺西鄉",
            "students": 219,
            "status": "正常"
          },
          {
            "id": "094524",
            "name": "縣立臺西國中",
            "townshipName": "臺西鄉",
            "students": 183,
            "status": "正常"
          },
          {
            "id": "094676",
            "name": "縣立崙豐國小",
            "townshipName": "臺西鄉",
            "students": 173,
            "status": "正常"
          }
        ]
      },
      {
        "id": "5-wsjxh",
        "geohash": "wsjxh",
        "precision": 5,
        "count": 2,
        "totalStudents": 330,
        "latitude": 23.761826,
        "longitude": 120.422415,
        "bounds": {
          "minLatitude": 23.751971,
          "maxLatitude": 23.771681,
          "minLongitude": 120.413262,
          "maxLongitude": 120.431568
        },
        "topSchools": [
          {
            "id": "094688",
            "name": "縣立二崙國小",
            "townshipName": "二崙鄉",
            "students": 243,
            "status": "正常"
          },
          {
            "id": "094684",
            "name": "縣立吳厝國小",
            "townshipName": "西螺鎮",
            "students": 87,
            "status": "正常"
          }
        ]
      },
      {
        "id": "5-wsjx7",
        "geohash": "wsjx7",
        "precision": 5,
        "count": 2,
        "totalStudents": 168,
        "latitude": 23.795187,
        "longitude": 120.383908,
        "bounds": {
          "minLatitude": 23.794893,
          "maxLatitude": 23.795482,
          "minLongitude": 120.376027,
          "maxLongitude": 120.39179
        },
        "topSchools": [
          {
            "id": "094690",
            "name": "縣立油車國小",
            "townshipName": "二崙鄉",
            "students": 125,
            "status": "正常"
          },
          {
            "id": "094691",
            "name": "縣立大同國小",
            "townshipName": "二崙鄉",
            "students": 43,
            "status": "正常"
          }
        ]
      },
      {
        "id": "5-wsjw0",
        "geohash": "wsjw0",
        "precision": 5,
        "count": 2,
        "totalStudents": 427,
        "latitude": 23.573035,
        "longitude": 120.247186,
        "bounds": {
          "minLatitude": 23.572879,
          "maxLatitude": 23.573192,
          "minLongitude": 120.246338,
          "maxLongitude": 120.248035
        },
        "topSchools": [
          {
            "id": "094753",
            "name": "縣立水燦林國小",
            "townshipName": "水林鄉",
            "students": 309,
            "status": "正常"
          },
          {
            "id": "094506",
            "name": "縣立水林國中",
            "townshipName": "水林鄉",
            "students": 118,
            "status": "正常"
          }
        ]
      },
      {
        "id": "5-wsjqp",
        "geohash": "wsjqp",
        "precision": 5,
        "count": 2,
        "totalStudents": 41,
        "latitude": 23.563122,
        "longitude": 120.216697,
        "bounds": {
          "minLatitude": 23.560397,
          "maxLatitude": 23.565848,
          "minLongitude": 120.210497,
          "maxLongitude": 120.222896
        },
        "topSchools": [
          {
            "id": "094754",
            "name": "縣立大興國小",
            "townshipName": "水林鄉",
            "students": 21,
            "status": "正常"
          },
          {
            "id": "094747",
            "name": "縣立尖山國小",
            "townshipName": "水林鄉",
            "students": 20,
            "status": "正常"
          }
        ]
      },
      {
        "id": "5-wsjy3",
        "geohash": "wsjy3",
        "precision": 5,
        "count": 2,
        "totalStudents": 147,
        "latitude": 23.603904,
        "longitude": 120.631287,
        "bounds": {
          "minLatitude": 23.603904,
          "maxLatitude": 23.603904,
          "minLongitude": 120.631287,
          "maxLongitude": 120.631287
        },
        "topSchools": [
          {
            "id": "094544",
            "name": "縣立樟湖生態國中(小)",
            "townshipName": "古坑鄉",
            "students": 93,
            "status": "正常"
          },
          {
            "id": "094618",
            "name": "縣立樟湖生態國(中)小",
            "townshipName": "古坑鄉",
            "students": 54,
            "status": "正常"
          }
        ]
      },
      {
        "id": "5-wsjy2",
        "geohash": "wsjy2",
        "precision": 5,
        "count": 2,
        "totalStudents": 102,
        "latitude": 23.621297,
        "longitude": 120.611691,
        "bounds": {
          "minLatitude": 23.612129,
          "maxLatitude": 23.630466,
          "minLongitude": 120.607712,
          "maxLongitude": 120.615669
        },
        "topSchools": [
          {
            "id": "094622",
            "name": "縣立山峰華德福實小",
            "townshipName": "古坑鄉",
            "students": 81,
            "status": "正常"
          },
          {
            "id": "094617",
            "name": "縣立桂林國小",
            "townshipName": "古坑鄉",
            "students": 21,
            "status": "正常"
          }
        ]
      },
      {
        "id": "5-wsjqx",
        "geohash": "wsjqx",
        "precision": 5,
        "count": 2,
        "totalStudents": 62,
        "latitude": 23.664149,
        "longitude": 120.20183,
        "bounds": {
          "minLatitude": 23.652983,
          "maxLatitude": 23.675315,
          "minLongitude": 120.19956,
          "maxLongitude": 120.204099
        },
        "topSchools": [
          {
            "id": "094677",
            "name": "縣立泉州國小",
            "townshipName": "臺西鄉",
            "students": 49,
            "status": "正常"
          },
          {
            "id": "094732",
            "name": "縣立明德國小",
            "townshipName": "四湖鄉",
            "students": 13,
            "status": "正常"
          }
        ]
      },
      {
        "id": "5-wsjx4",
        "geohash": "wsjx4",
        "precision": 5,
        "count": 2,
        "totalStudents": 888,
        "latitude": 23.758157,
        "longitude": 120.348059,
        "bounds": {
          "minLatitude": 23.757572,
          "maxLatitude": 23.758743,
          "minLongitude": 120.347075,
          "maxLongitude": 120.349042
        },
        "topSchools": [
          {
            "id": "094696",
            "name": "縣立崙背國小",
            "townshipName": "崙背鄉",
            "students": 581,
            "status": "正常"
          },
          {
            "id": "094511",
            "name": "縣立崙背國中",
            "townshipName": "崙背鄉",
            "students": 307,
            "status": "正常"
          }
        ]
      },
      {
        "id": "5-wsjx1",
        "geohash": "wsjx1",
        "precision": 5,
        "count": 2,
        "totalStudents": 114,
        "latitude": 23.761539,
        "longitude": 120.298814,
        "bounds": {
          "minLatitude": 23.759089,
          "maxLatitude": 23.76399,
          "minLongitude": 120.288522,
          "maxLongitude": 120.309107
        },
        "topSchools": [
          {
            "id": "094705",
            "name": "縣立興華國小",
            "townshipName": "麥寮鄉",
            "students": 70,
            "status": "正常"
          },
          {
            "id": "094698",
            "name": "縣立大有國小",
            "townshipName": "崙背鄉",
            "students": 44,
            "status": "正常"
          }
        ]
      },
      {
        "id": "5-wsjx2",
        "geohash": "wsjx2",
        "precision": 5,
        "count": 2,
        "totalStudents": 745,
        "latitude": 23.793338,
        "longitude": 120.253847,
        "bounds": {
          "minLatitude": 23.789188,
          "maxLatitude": 23.797489,
          "minLongitude": 120.234511,
          "maxLongitude": 120.273183
        },
        "topSchools": [
          {
            "id": "094703",
            "name": "縣立橋頭國小",
            "townshipName": "麥寮鄉",
            "students": 651,
            "status": "正常"
          },
          {
            "id": "094706",
            "name": "縣立豐安國小",
            "townshipName": "麥寮鄉",
            "students": 94,
            "status": "正常"
          }
        ]
      },
      {
        "id": "5-wsjmy",
        "geohash": "wsjmy",
        "precision": 5,
        "count": 1,
        "totalStudents": 193,
        "latitude": 23.541788,
        "longitude": 120.189485,
        "bounds": {
          "minLatitude": 23.541788,
          "maxLatitude": 23.541788,
          "minLongitude": 120.189485,
          "maxLongitude": 120.189485
        },
        "topSchools": [
          {
            "id": "094736",
            "name": "縣立文光國小",
            "townshipName": "口湖鄉",
            "students": 193,
            "status": "正常"
          }
        ]
      },
      {
        "id": "5-wsjqj",
        "geohash": "wsjqj",
        "precision": 5,
        "count": 1,
        "totalStudents": 61,
        "latitude": 23.562635,
        "longitude": 120.142054,
        "bounds": {
          "minLatitude": 23.562635,
          "maxLatitude": 23.562635,
          "minLongitude": 120.142054,
          "maxLongitude": 120.142054
        },
        "topSchools": [
          {
            "id": "094742",
            "name": "縣立臺興國小",
            "townshipName": "口湖鄉",
            "students": 61,
            "status": "正常"
          }
        ]
      },
      {
        "id": "5-wsjwk",
        "geohash": "wsjwk",
        "precision": 5,
        "count": 1,
        "totalStudents": 206,
        "latitude": 23.641878,
        "longitude": 120.429847,
        "bounds": {
          "minLatitude": 23.641878,
          "maxLatitude": 23.641878,
          "minLongitude": 120.429847,
          "maxLongitude": 120.429847
        },
        "topSchools": [
          {
            "id": "094503",
            "name": "縣立大埤國中",
            "townshipName": "大埤鄉",
            "students": 206,
            "status": "正常"
          }
        ]
      },
      {
        "id": "5-wsjw7",
        "geohash": "wsjw7",
        "precision": 5,
        "count": 1,
        "totalStudents": 56,
        "latitude": 23.633529,
        "longitude": 120.401494,
        "bounds": {
          "minLatitude": 23.633529,
          "maxLatitude": 23.633529,
          "minLongitude": 120.401494,
          "maxLongitude": 120.401494
        },
        "topSchools": [
          {
            "id": "094644",
            "name": "縣立舊庄國小",
            "townshipName": "大埤鄉",
            "students": 56,
            "status": "正常"
          }
        ]
      },
      {
        "id": "5-wsjwm",
        "geohash": "wsjwm",
        "precision": 5,
        "count": 1,
        "totalStudents": 113,
        "latitude": 23.641717,
        "longitude": 120.482591,
        "bounds": {
          "minLatitude": 23.641717,
          "maxLatitude": 23.641717,
          "minLongitude": 120.482591,
          "maxLongitude": 120.482591
        },
        "topSchools": [
          {
            "id": "094633",
            "name": "縣立石龜國小",
            "townshipName": "斗南鎮",
            "students": 113,
            "status": "正常"
          }
        ]
      },
      {
        "id": "5-wsjwp",
        "geohash": "wsjwp",
        "precision": 5,
        "count": 1,
        "totalStudents": 102,
        "latitude": 23.596306,
        "longitude": 120.574947,
        "bounds": {
          "minLatitude": 23.596306,
          "maxLatitude": 23.596306,
          "minLongitude": 120.574947,
          "maxLongitude": 120.574947
        },
        "topSchools": [
          {
            "id": "094620",
            "name": "縣立華南國小",
            "townshipName": "古坑鄉",
            "students": 102,
            "status": "正常"
          }
        ]
      },
      {
        "id": "5-wsjy8",
        "geohash": "wsjy8",
        "precision": 5,
        "count": 1,
        "totalStudents": 42,
        "latitude": 23.686131,
        "longitude": 120.603804,
        "bounds": {
          "minLatitude": 23.686131,
          "maxLatitude": 23.686131,
          "minLongitude": 120.603804,
          "maxLongitude": 120.603804
        },
        "topSchools": [
          {
            "id": "094616",
            "name": "縣立棋山國小",
            "townshipName": "古坑鄉",
            "students": 42,
            "status": "正常"
          }
        ]
      },
      {
        "id": "5-wsjy0",
        "geohash": "wsjy0",
        "precision": 5,
        "count": 1,
        "totalStudents": 34,
        "latitude": 23.595308,
        "longitude": 120.596701,
        "bounds": {
          "minLatitude": 23.595308,
          "maxLatitude": 23.595308,
          "minLongitude": 120.596701,
          "maxLongitude": 120.596701
        },
        "topSchools": [
          {
            "id": "094615",
            "name": "縣立華山國小",
            "townshipName": "古坑鄉",
            "students": 34,
            "status": "正常"
          }
        ]
      },
      {
        "id": "5-wsjy4",
        "geohash": "wsjy4",
        "precision": 5,
        "count": 1,
        "totalStudents": 18,
        "latitude": 23.586286,
        "longitude": 120.694496,
        "bounds": {
          "minLatitude": 23.586286,
          "maxLatitude": 23.586286,
          "minLongitude": 120.694496,
          "maxLongitude": 120.694496
        },
        "topSchools": [
          {
            "id": "094619",
            "name": "縣立草嶺生態地質國小",
            "townshipName": "古坑鄉",
            "students": 18,
            "status": "正常"
          }
        ]
      },
      {
        "id": "5-wsjz1",
        "geohash": "wsjz1",
        "precision": 5,
        "count": 1,
        "totalStudents": 36,
        "latitude": 23.756289,
        "longitude": 120.640525,
        "bounds": {
          "minLatitude": 23.756289,
          "maxLatitude": 23.756289,
          "minLongitude": 120.640525,
          "maxLongitude": 120.640525
        },
        "topSchools": [
          {
            "id": "094628",
            "name": "縣立成功國小",
            "townshipName": "林內鄉",
            "students": 36,
            "status": "正常"
          }
        ]
      },
      {
        "id": "5-wsjx3",
        "geohash": "wsjx3",
        "precision": 5,
        "count": 1,
        "totalStudents": 67,
        "latitude": 23.791993,
        "longitude": 120.311851,
        "bounds": {
          "minLatitude": 23.791993,
          "maxLatitude": 23.791993,
          "minLongitude": 120.311851,
          "maxLongitude": 120.311851
        },
        "topSchools": [
          {
            "id": "094697",
            "name": "縣立豐榮國小",
            "townshipName": "崙背鄉",
            "students": 67,
            "status": "正常"
          }
        ]
      },
      {
        "id": "5-wsjxq",
        "geohash": "wsjxq",
        "precision": 5,
        "count": 1,
        "totalStudents": 220,
        "latitude": 23.777447,
        "longitude": 120.522282,
        "bounds": {
          "minLatitude": 23.777447,
          "maxLatitude": 23.777447,
          "minLongitude": 120.522282,
          "maxLongitude": 120.522282
        },
        "topSchools": [
          {
            "id": "094638",
            "name": "縣立饒平國小",
            "townshipName": "莿桐鄉",
            "students": 220,
            "status": "正常"
          }
        ]
      },
      {
        "id": "5-wsjrp",
        "geohash": "wsjrp",
        "precision": 5,
        "count": 1,
        "totalStudents": 55,
        "latitude": 23.739742,
        "longitude": 120.222282,
        "bounds": {
          "minLatitude": 23.739742,
          "maxLatitude": 23.739742,
          "minLongitude": 120.222282,
          "maxLongitude": 120.222282
        },
        "topSchools": [
          {
            "id": "094678",
            "name": "縣立新興國小",
            "townshipName": "臺西鄉",
            "students": 55,
            "status": "正常"
          }
        ]
      }
    ],
    "6": [
      {
        "id": "6-wsjwqw",
        "geohash": "wsjwqw",
        "precision": 6,
        "count": 5,
        "totalStudents": 807,
        "latitude": 23.634935,
        "longitude": 120.52243,
        "bounds": {
          "minLatitude": 23.633777,
          "maxLatitude": 23.635509,
          "minLongitude": 120.521088,
          "maxLongitude": 120.523467
        },
        "topSchools": [
          {
            "id": "091602",
            "name": "私立福智國小",
            "townshipName": "古坑鄉",
            "students": 353,
            "status": "正常"
          },
          {
            "id": "091319",
            "name": "福智高中",
            "townshipName": "古坑鄉",
            "students": 201,
            "status": "正常"
          },
          {
            "id": "091506",
            "name": "私立福智實驗國中",
            "townshipName": "古坑鄉",
            "students": 139,
            "status": "正常"
          },
          {
            "id": "091319:國中",
            "name": "私立福智高中附設國中部",
            "townshipName": "古坑鄉",
            "students": 114,
            "status": "正常"
          }
        ]
      },
      {
        "id": "6-wsjwzh",
        "geohash": "wsjwzh",
        "precision": 6,
        "count": 3,
        "totalStudents": 3830,
        "latitude": 23.712712,
        "longitude": 120.549554,
        "bounds": {
          "minLatitude": 23.711942,
          "maxLatitude": 23.713209,
          "minLongitude": 120.545788,
          "maxLongitude": 120.552282
        },
        "topSchools": [
          {
            "id": "094515",
            "name": "縣立斗六國中",
            "townshipName": "斗六市",
            "students": 1715,
            "status": "正常"
          },
          {
            "id": "090305",
            "name": "國立斗六高中",
            "townshipName": "斗六市",
            "students": 1523,
            "status": "正常"
          },
          {
            "id": "094602",
            "name": "縣立鎮東國小",
            "townshipName": "斗六市",
            "students": 592,
            "status": "正常"
          }
        ]
      },
      {
        "id": "6-wsjwxn",
        "geohash": "wsjwxn",
        "precision": 6,
        "count": 3,
        "totalStudents": 835,
        "latitude": 23.679641,
        "longitude": 120.552149,
        "bounds": {
          "minLatitude": 23.679177,
          "maxLatitude": 23.679873,
          "minLongitude": 120.551966,
          "maxLongitude": 120.552515
        },
        "topSchools": [
          {
            "id": "091601",
            "name": "私立維多利亞小學",
            "townshipName": "斗六市",
            "students": 546,
            "status": "正常"
          },
          {
            "id": "091320:國中",
            "name": "私立維多利亞高中附設國中部",
            "townshipName": "斗六市",
            "students": 154,
            "status": "正常"
          },
          {
            "id": "091320",
            "name": "雲林縣維多利亞實驗高中",
            "townshipName": "斗六市",
            "students": 135,
            "status": "正常"
          }
        ]
      },
      {
        "id": "6-wsjw1s",
        "geohash": "wsjw1s",
        "precision": 6,
        "count": 3,
        "totalStudents": 2595,
        "latitude": 23.578492,
        "longitude": 120.30463,
        "bounds": {
          "minLatitude": 23.577604,
          "maxLatitude": 23.57973,
          "minLongitude": 120.302526,
          "maxLongitude": 120.306683
        },
        "topSchools": [
          {
            "id": "094708",
            "name": "縣立北辰國小",
            "townshipName": "北港鎮",
            "students": 1215,
            "status": "正常"
          },
          {
            "id": "090404",
            "name": "國立北港農工",
            "townshipName": "北港鎮",
            "students": 729,
            "status": "正常"
          },
          {
            "id": "090306",
            "name": "國立北港高中",
            "townshipName": "北港鎮",
            "students": 651,
            "status": "正常"
          }
        ]
      },
      {
        "id": "6-wsjqry",
        "geohash": "wsjqry",
        "precision": 6,
        "count": 3,
        "totalStudents": 657,
        "latitude": 23.633815,
        "longitude": 120.227682,
        "bounds": {
          "minLatitude": 23.632406,
          "maxLatitude": 23.636632,
          "minLongitude": 120.227004,
          "maxLongitude": 120.229038
        },
        "topSchools": [
          {
            "id": "091311:國中",
            "name": "私立文生高中附設國中部",
            "townshipName": "四湖鄉",
            "students": 266,
            "status": "正常"
          },
          {
            "id": "091311",
            "name": "私立文生高中",
            "townshipName": "四湖鄉",
            "students": 226,
            "status": "正常"
          },
          {
            "id": "094724",
            "name": "縣立四湖國小",
            "townshipName": "四湖鄉",
            "students": 165,
            "status": "正常"
          }
        ]
      },
      {
        "id": "6-wsjwut",
        "geohash": "wsjwut",
        "precision": 6,
        "count": 3,
        "totalStudents": 1810,
        "latitude": 23.71602,
        "longitude": 120.439391,
        "bounds": {
          "minLatitude": 23.714154,
          "maxLatitude": 23.718807,
          "minLongitude": 120.436316,
          "maxLongitude": 120.441867
        },
        "topSchools": [
          {
            "id": "090401",
            "name": "國立虎尾農工",
            "townshipName": "虎尾鎮",
            "students": 1139,
            "status": "正常"
          },
          {
            "id": "094543",
            "name": "縣立東仁國中",
            "townshipName": "虎尾鎮",
            "students": 439,
            "status": "正常"
          },
          {
            "id": "094653",
            "name": "縣立中正國小",
            "townshipName": "虎尾鎮",
            "students": 232,
            "status": "正常"
          }
        ]
      },
      {
        "id": "6-wsjwey",
        "geohash": "wsjwey",
        "precision": 6,
        "count": 2,
        "totalStudents": 804,
        "latitude": 23.679581,
        "longitude": 120.400631,
        "bounds": {
          "minLatitude": 23.679581,
          "maxLatitude": 23.679581,
          "minLongitude": 120.400631,
          "maxLongitude": 120.400631
        },
        "topSchools": [
          {
            "id": "091307:國中",
            "name": "私立永年高中附設國中部",
            "townshipName": "土庫鎮",
            "students": 497,
            "status": "正常"
          },
          {
            "id": "091307",
            "name": "私立永年高中",
            "townshipName": "土庫鎮",
            "students": 307,
            "status": "正常"
          }
        ]
      },
      {
        "id": "6-wsjwys",
        "geohash": "wsjwys",
        "precision": 6,
        "count": 2,
        "totalStudents": 1977,
        "latitude": 23.713816,
        "longitude": 120.527963,
        "bounds": {
          "minLatitude": 23.713816,
          "maxLatitude": 23.713816,
          "minLongitude": 120.527963,
          "maxLongitude": 120.527963
        },
        "topSchools": [
          {
            "id": "091308:國中",
            "name": "私立正心高中附設國中部",
            "townshipName": "斗六市",
            "students": 1143,
            "status": "正常"
          },
          {
            "id": "091308",
            "name": "私立正心高中",
            "townshipName": "斗六市",
            "students": 834,
            "status": "正常"
          }
        ]
      },
      {
        "id": "6-wsjwz5",
        "geohash": "wsjwz5",
        "precision": 6,
        "count": 2,
        "totalStudents": 1928,
        "latitude": 23.707382,
        "longitude": 120.549872,
        "bounds": {
          "minLatitude": 23.707193,
          "maxLatitude": 23.707571,
          "minLongitude": 120.547006,
          "maxLongitude": 120.552738
        },
        "topSchools": [
          {
            "id": "090403",
            "name": "國立斗六家商",
            "townshipName": "斗六市",
            "students": 971,
            "status": "正常"
          },
          {
            "id": "094756",
            "name": "縣立斗六國小",
            "townshipName": "斗六市",
            "students": 957,
            "status": "正常"
          }
        ]
      },
      {
        "id": "6-wsjwyf",
        "geohash": "wsjwyf",
        "precision": 6,
        "count": 2,
        "totalStudents": 1292,
        "latitude": 23.699243,
        "longitude": 120.536111,
        "bounds": {
          "minLatitude": 23.698455,
          "maxLatitude": 23.70003,
          "minLongitude": 120.532803,
          "maxLongitude": 120.539418
        },
        "topSchools": [
          {
            "id": "094609",
            "name": "縣立鎮南國小",
            "townshipName": "斗六市",
            "students": 790,
            "status": "正常"
          },
          {
            "id": "094516",
            "name": "縣立雲林國中",
            "townshipName": "斗六市",
            "students": 502,
            "status": "正常"
          }
        ]
      },
      {
        "id": "6-wsjwtx",
        "geohash": "wsjwtx",
        "precision": 6,
        "count": 2,
        "totalStudents": 1038,
        "latitude": 23.681531,
        "longitude": 120.476543,
        "bounds": {
          "minLatitude": 23.681531,
          "maxLatitude": 23.681531,
          "minLongitude": 120.476543,
          "maxLongitude": 120.476543
        },
        "topSchools": [
          {
            "id": "094301",
            "name": "縣立斗南高中",
            "townshipName": "斗南鎮",
            "students": 569,
            "status": "正常"
          },
          {
            "id": "094301:國中",
            "name": "縣立斗南高中附設國中部",
            "townshipName": "斗南鎮",
            "students": 469,
            "status": "正常"
          }
        ]
      },
      {
        "id": "6-wsjw07",
        "geohash": "wsjw07",
        "precision": 6,
        "count": 2,
        "totalStudents": 427,
        "latitude": 23.573035,
        "longitude": 120.247186,
        "bounds": {
          "minLatitude": 23.572879,
          "maxLatitude": 23.573192,
          "minLongitude": 120.246338,
          "maxLongitude": 120.248035
        },
        "topSchools": [
          {
            "id": "094753",
            "name": "縣立水燦林國小",
            "townshipName": "水林鄉",
            "students": 309,
            "status": "正常"
          },
          {
            "id": "094506",
            "name": "縣立水林國中",
            "townshipName": "水林鄉",
            "students": 118,
            "status": "正常"
          }
        ]
      },
      {
        "id": "6-wsjmzc",
        "geohash": "wsjmzc",
        "precision": 6,
        "count": 2,
        "totalStudents": 284,
        "latitude": 23.521719,
        "longitude": 120.230108,
        "bounds": {
          "minLatitude": 23.521719,
          "maxLatitude": 23.521719,
          "minLongitude": 120.230108,
          "maxLongitude": 120.230108
        },
        "topSchools": [
          {
            "id": "094326:國中",
            "name": "縣立蔦松高中附設國中部",
            "townshipName": "水林鄉",
            "students": 173,
            "status": "正常"
          },
          {
            "id": "094326",
            "name": "縣立蔦松藝術高中",
            "townshipName": "水林鄉",
            "students": 111,
            "status": "正常"
          }
        ]
      },
      {
        "id": "6-wsjwxx",
        "geohash": "wsjwxx",
        "precision": 6,
        "count": 2,
        "totalStudents": 490,
        "latitude": 23.685551,
        "longitude": 120.568258,
        "bounds": {
          "minLatitude": 23.684927,
          "maxLatitude": 23.686176,
          "minLongitude": 120.567902,
          "maxLongitude": 120.568614
        },
        "topSchools": [
          {
            "id": "094527",
            "name": "縣立東和國中",
            "townshipName": "古坑鄉",
            "students": 284,
            "status": "正常"
          },
          {
            "id": "094613",
            "name": "縣立東和國小",
            "townshipName": "古坑鄉",
            "students": 206,
            "status": "正常"
          }
        ]
      },
      {
        "id": "6-wsjwx8",
        "geohash": "wsjwx8",
        "precision": 6,
        "count": 2,
        "totalStudents": 282,
        "latitude": 23.646551,
        "longitude": 120.567052,
        "bounds": {
          "minLatitude": 23.646551,
          "maxLatitude": 23.646551,
          "minLongitude": 120.567052,
          "maxLongitude": 120.567052
        },
        "topSchools": [
          {
            "id": "094612",
            "name": "縣立古坑國(中)小",
            "townshipName": "古坑鄉",
            "students": 159,
            "status": "正常"
          },
          {
            "id": "094512",
            "name": "縣立古坑國中(小)",
            "townshipName": "古坑鄉",
            "students": 123,
            "status": "正常"
          }
        ]
      },
      {
        "id": "6-wsjwr4",
        "geohash": "wsjwr4",
        "precision": 6,
        "count": 2,
        "totalStudents": 172,
        "latitude": 23.613618,
        "longitude": 120.545041,
        "bounds": {
          "minLatitude": 23.613618,
          "maxLatitude": 23.613618,
          "minLongitude": 120.545041,
          "maxLongitude": 120.545041
        },
        "topSchools": [
          {
            "id": "094308:國中",
            "name": "縣立古坑華德福實驗高中附設國中部",
            "townshipName": "古坑鄉",
            "students": 113,
            "status": "正常"
          },
          {
            "id": "094308",
            "name": "縣立古坑華德福實驗高級中學",
            "townshipName": "古坑鄉",
            "students": 59,
            "status": "正常"
          }
        ]
      },
      {
        "id": "6-wsjy30",
        "geohash": "wsjy30",
        "precision": 6,
        "count": 2,
        "totalStudents": 147,
        "latitude": 23.603904,
        "longitude": 120.631287,
        "bounds": {
          "minLatitude": 23.603904,
          "maxLatitude": 23.603904,
          "minLongitude": 120.631287,
          "maxLongitude": 120.631287
        },
        "topSchools": [
          {
            "id": "094544",
            "name": "縣立樟湖生態國中(小)",
            "townshipName": "古坑鄉",
            "students": 93,
            "status": "正常"
          },
          {
            "id": "094618",
            "name": "縣立樟湖生態國(中)小",
            "townshipName": "古坑鄉",
            "students": 54,
            "status": "正常"
          }
        ]
      },
      {
        "id": "6-wsjqw8",
        "geohash": "wsjqw8",
        "precision": 6,
        "count": 2,
        "totalStudents": 101,
        "latitude": 23.643165,
        "longitude": 120.175903,
        "bounds": {
          "minLatitude": 23.643037,
          "maxLatitude": 23.643293,
          "minLongitude": 120.173404,
          "maxLongitude": 120.178401
        },
        "topSchools": [
          {
            "id": "094504",
            "name": "縣立飛沙國中",
            "townshipName": "四湖鄉",
            "students": 82,
            "status": "正常"
          },
          {
            "id": "094726",
            "name": "縣立飛沙國小",
            "townshipName": "四湖鄉",
            "students": 19,
            "status": "正常"
          }
        ]
      },
      {
        "id": "6-wsjxm7",
        "geohash": "wsjxm7",
        "precision": 6,
        "count": 2,
        "totalStudents": 2096,
        "latitude": 23.794905,
        "longitude": 120.467306,
        "bounds": {
          "minLatitude": 23.79487,
          "maxLatitude": 23.794941,
          "minLongitude": 120.465475,
          "maxLongitude": 120.469136
        },
        "topSchools": [
          {
            "id": "090402",
            "name": "國立西螺農工",
            "townshipName": "西螺鎮",
            "students": 1438,
            "status": "正常"
          },
          {
            "id": "094681",
            "name": "縣立中山國小",
            "townshipName": "西螺鎮",
            "students": 658,
            "status": "正常"
          }
        ]
      },
      {
        "id": "6-wsjz0s",
        "geohash": "wsjz0s",
        "precision": 6,
        "count": 2,
        "totalStudents": 769,
        "latitude": 23.754404,
        "longitude": 120.614583,
        "bounds": {
          "minLatitude": 23.754084,
          "maxLatitude": 23.754724,
          "minLongitude": 120.614461,
          "maxLongitude": 120.614705
        },
        "topSchools": [
          {
            "id": "091502",
            "name": "私立淵明國中(代用)",
            "townshipName": "林內鄉",
            "students": 674,
            "status": "正常"
          },
          {
            "id": "094629",
            "name": "縣立林中國小",
            "townshipName": "林內鄉",
            "students": 95,
            "status": "正常"
          }
        ]
      },
      {
        "id": "6-wsjwu7",
        "geohash": "wsjwu7",
        "precision": 6,
        "count": 2,
        "totalStudents": 13325,
        "latitude": 23.70459,
        "longitude": 120.42902,
        "bounds": {
          "minLatitude": 23.703312,
          "maxLatitude": 23.705868,
          "minLongitude": 120.427949,
          "maxLongitude": 120.430091
        },
        "topSchools": [
          {
            "id": "0033",
            "name": "國立虎尾科技大學",
            "townshipName": "虎尾鎮",
            "students": 11975,
            "status": "正常"
          },
          {
            "id": "094649",
            "name": "縣立立仁國小",
            "townshipName": "虎尾鎮",
            "students": 1350,
            "status": "正常"
          }
        ]
      },
      {
        "id": "6-wsjwuj",
        "geohash": "wsjwuj",
        "precision": 6,
        "count": 2,
        "totalStudents": 966,
        "latitude": 23.716502,
        "longitude": 120.419128,
        "bounds": {
          "minLatitude": 23.716296,
          "maxLatitude": 23.716708,
          "minLongitude": 120.417545,
          "maxLongitude": 120.420712
        },
        "topSchools": [
          {
            "id": "094518",
            "name": "縣立崇德國中",
            "townshipName": "虎尾鎮",
            "students": 870,
            "status": "正常"
          },
          {
            "id": "094655",
            "name": "縣立廉使國小",
            "townshipName": "虎尾鎮",
            "students": 96,
            "status": "正常"
          }
        ]
      },
      {
        "id": "6-wsjwu3",
        "geohash": "wsjwu3",
        "precision": 6,
        "count": 2,
        "totalStudents": 894,
        "latitude": 23.696973,
        "longitude": 120.423856,
        "bounds": {
          "minLatitude": 23.696973,
          "maxLatitude": 23.696973,
          "minLongitude": 120.423856,
          "maxLongitude": 120.423856
        },
        "topSchools": [
          {
            "id": "091316",
            "name": "私立揚子高中",
            "townshipName": "虎尾鎮",
            "students": 486,
            "status": "正常"
          },
          {
            "id": "091316:國中",
            "name": "私立揚子高中附設國中部",
            "townshipName": "虎尾鎮",
            "students": 408,
            "status": "正常"
          }
        ]
      },
      {
        "id": "6-wsjx0k",
        "geohash": "wsjx0k",
        "precision": 6,
        "count": 2,
        "totalStudents": 1116,
        "latitude": 23.757848,
        "longitude": 120.252231,
        "bounds": {
          "minLatitude": 23.757848,
          "maxLatitude": 23.757848,
          "minLongitude": 120.252231,
          "maxLongitude": 120.252231
        },
        "topSchools": [
          {
            "id": "094307:國中",
            "name": "縣立麥寮高中附設國中部",
            "townshipName": "麥寮鄉",
            "students": 711,
            "status": "正常"
          },
          {
            "id": "094307",
            "name": "縣立麥寮高中",
            "townshipName": "麥寮鄉",
            "students": 405,
            "status": "正常"
          }
        ]
      },
      {
        "id": "6-wsjqz4",
        "geohash": "wsjqz4",
        "precision": 6,
        "count": 2,
        "totalStudents": 402,
        "latitude": 23.701686,
        "longitude": 120.195708,
        "bounds": {
          "minLatitude": 23.701546,
          "maxLatitude": 23.701826,
          "minLongitude": 120.191839,
          "maxLongitude": 120.199577
        },
        "topSchools": [
          {
            "id": "094675",
            "name": "縣立臺西國小",
            "townshipName": "臺西鄉",
            "students": 219,
            "status": "正常"
          },
          {
            "id": "094524",
            "name": "縣立臺西國中",
            "townshipName": "臺西鄉",
            "students": 183,
            "status": "正常"
          }
        ]
      },
      {
        "id": "6-wsjwcd",
        "geohash": "wsjwcd",
        "precision": 6,
        "count": 2,
        "totalStudents": 417,
        "latitude": 23.699789,
        "longitude": 120.310597,
        "bounds": {
          "minLatitude": 23.69918,
          "maxLatitude": 23.700398,
          "minLongitude": 120.310398,
          "maxLongitude": 120.310796
        },
        "topSchools": [
          {
            "id": "094666",
            "name": "縣立褒忠國小",
            "townshipName": "褒忠鄉",
            "students": 326,
            "status": "正常"
          },
          {
            "id": "094509",
            "name": "縣立褒忠國中",
            "townshipName": "褒忠鄉",
            "students": 91,
            "status": "正常"
          }
        ]
      },
      {
        "id": "6-wsjx5z",
        "geohash": "wsjx5z",
        "precision": 6,
        "count": 1,
        "totalStudents": 394,
        "latitude": 23.773276,
        "longitude": 120.407454,
        "bounds": {
          "minLatitude": 23.773276,
          "maxLatitude": 23.773276,
          "minLongitude": 120.407454,
          "maxLongitude": 120.407454
        },
        "topSchools": [
          {
            "id": "094508",
            "name": "縣立二崙國中",
            "townshipName": "二崙鄉",
            "students": 394,
            "status": "正常"
          }
        ]
      },
      {
        "id": "6-wsjxhp",
        "geohash": "wsjxhp",
        "precision": 6,
        "count": 1,
        "totalStudents": 243,
        "latitude": 23.771681,
        "longitude": 120.413262,
        "bounds": {
          "minLatitude": 23.771681,
          "maxLatitude": 23.771681,
          "minLongitude": 120.413262,
          "maxLongitude": 120.413262
        },
        "topSchools": [
          {
            "id": "094688",
            "name": "縣立二崙國小",
            "townshipName": "二崙鄉",
            "students": 243,
            "status": "正常"
          }
        ]
      },
      {
        "id": "6-wsjx7e",
        "geohash": "wsjx7e",
        "precision": 6,
        "count": 1,
        "totalStudents": 125,
        "latitude": 23.795482,
        "longitude": 120.39179,
        "bounds": {
          "minLatitude": 23.795482,
          "maxLatitude": 23.795482,
          "minLongitude": 120.39179,
          "maxLongitude": 120.39179
        },
        "topSchools": [
          {
            "id": "094690",
            "name": "縣立油車國小",
            "townshipName": "二崙鄉",
            "students": 125,
            "status": "正常"
          }
        ]
      },
      {
        "id": "6-wsjxkh",
        "geohash": "wsjxkh",
        "precision": 6,
        "count": 1,
        "totalStudents": 100,
        "latitude": 23.796506,
        "longitude": 120.419117,
        "bounds": {
          "minLatitude": 23.796506,
          "maxLatitude": 23.796506,
          "minLongitude": 120.419117,
          "maxLongitude": 120.419117
        },
        "topSchools": [
          {
            "id": "094692",
            "name": "縣立永定國小",
            "townshipName": "二崙鄉",
            "students": 100,
            "status": "正常"
          }
        ]
      },
      {
        "id": "6-wsjxkp",
        "geohash": "wsjxkp",
        "precision": 6,
        "count": 1,
        "totalStudents": 73,
        "latitude": 23.817156,
        "longitude": 120.413948,
        "bounds": {
          "minLatitude": 23.817156,
          "maxLatitude": 23.817156,
          "minLongitude": 120.413948,
          "maxLongitude": 120.413948
        },
        "topSchools": [
          {
            "id": "094693",
            "name": "縣立義賢國小",
            "townshipName": "二崙鄉",
            "students": 73,
            "status": "正常"
          }
        ]
      },
      {
        "id": "6-wsjx5w",
        "geohash": "wsjx5w",
        "precision": 6,
        "count": 1,
        "totalStudents": 52,
        "latitude": 23.768179,
        "longitude": 120.398549,
        "bounds": {
          "minLatitude": 23.768179,
          "maxLatitude": 23.768179,
          "minLongitude": 120.398549,
          "maxLongitude": 120.398549
        },
        "topSchools": [
          {
            "id": "094695",
            "name": "縣立來惠國小",
            "townshipName": "二崙鄉",
            "students": 52,
            "status": "正常"
          }
        ]
      },
      {
        "id": "6-wsjx6v",
        "geohash": "wsjx6v",
        "precision": 6,
        "count": 1,
        "totalStudents": 46,
        "latitude": 23.804787,
        "longitude": 120.365498,
        "bounds": {
          "minLatitude": 23.804787,
          "maxLatitude": 23.804787,
          "minLongitude": 120.365498,
          "maxLongitude": 120.365498
        },
        "topSchools": [
          {
            "id": "094694",
            "name": "縣立旭光國小",
            "townshipName": "二崙鄉",
            "students": 46,
            "status": "正常"
          }
        ]
      },
      {
        "id": "6-wsjx75",
        "geohash": "wsjx75",
        "precision": 6,
        "count": 1,
        "totalStudents": 43,
        "latitude": 23.794893,
        "longitude": 120.376027,
        "bounds": {
          "minLatitude": 23.794893,
          "maxLatitude": 23.794893,
          "minLongitude": 120.376027,
          "maxLongitude": 120.376027
        },
        "topSchools": [
          {
            "id": "094691",
            "name": "縣立大同國小",
            "townshipName": "二崙鄉",
            "students": 43,
            "status": "正常"
          }
        ]
      },
      {
        "id": "6-wsjx5g",
        "geohash": "wsjx5g",
        "precision": 6,
        "count": 1,
        "totalStudents": 23,
        "latitude": 23.750485,
        "longitude": 120.408267,
        "bounds": {
          "minLatitude": 23.750485,
          "maxLatitude": 23.750485,
          "minLongitude": 120.408267,
          "maxLongitude": 120.408267
        },
        "topSchools": [
          {
            "id": "094689",
            "name": "縣立三和國小",
            "townshipName": "二崙鄉",
            "students": 23,
            "status": "正常"
          }
        ]
      },
      {
        "id": "6-wsjmyv",
        "geohash": "wsjmyv",
        "precision": 6,
        "count": 1,
        "totalStudents": 193,
        "latitude": 23.541788,
        "longitude": 120.189485,
        "bounds": {
          "minLatitude": 23.541788,
          "maxLatitude": 23.541788,
          "minLongitude": 120.189485,
          "maxLongitude": 120.189485
        },
        "topSchools": [
          {
            "id": "094736",
            "name": "縣立文光國小",
            "townshipName": "口湖鄉",
            "students": 193,
            "status": "正常"
          }
        ]
      },
      {
        "id": "6-wsjqq6",
        "geohash": "wsjqq6",
        "precision": 6,
        "count": 1,
        "totalStudents": 148,
        "latitude": 23.612538,
        "longitude": 120.15858,
        "bounds": {
          "minLatitude": 23.612538,
          "maxLatitude": 23.612538,
          "minLongitude": 120.15858,
          "maxLongitude": 120.15858
        },
        "topSchools": [
          {
            "id": "094738",
            "name": "縣立下崙國小",
            "townshipName": "口湖鄉",
            "students": 148,
            "status": "正常"
          }
        ]
      },
      {
        "id": "6-wsjqny",
        "geohash": "wsjqny",
        "precision": 6,
        "count": 1,
        "totalStudents": 126,
        "latitude": 23.588099,
        "longitude": 120.184105,
        "bounds": {
          "minLatitude": 23.588099,
          "maxLatitude": 23.588099,
          "minLongitude": 120.184105,
          "maxLongitude": 120.184105
        },
        "topSchools": [
          {
            "id": "094523",
            "name": "縣立口湖國中",
            "townshipName": "口湖鄉",
            "students": 126,
            "status": "正常"
          }
        ]
      },
      {
        "id": "6-wsjqnv",
        "geohash": "wsjqnv",
        "precision": 6,
        "count": 1,
        "totalStudents": 94,
        "latitude": 23.587333,
        "longitude": 120.183717,
        "bounds": {
          "minLatitude": 23.587333,
          "maxLatitude": 23.587333,
          "minLongitude": 120.183717,
          "maxLongitude": 120.183717
        },
        "topSchools": [
          {
            "id": "094735",
            "name": "縣立口湖國小",
            "townshipName": "口湖鄉",
            "students": 94,
            "status": "正常"
          }
        ]
      },
      {
        "id": "6-wsjqjc",
        "geohash": "wsjqjc",
        "precision": 6,
        "count": 1,
        "totalStudents": 61,
        "latitude": 23.562635,
        "longitude": 120.142054,
        "bounds": {
          "minLatitude": 23.562635,
          "maxLatitude": 23.562635,
          "minLongitude": 120.142054,
          "maxLongitude": 120.142054
        },
        "topSchools": [
          {
            "id": "094742",
            "name": "縣立臺興國小",
            "townshipName": "口湖鄉",
            "students": 61,
            "status": "正常"
          }
        ]
      },
      {
        "id": "6-wsjqne",
        "geohash": "wsjqne",
        "precision": 6,
        "count": 1,
        "totalStudents": 50,
        "latitude": 23.575154,
        "longitude": 120.177826,
        "bounds": {
          "minLatitude": 23.575154,
          "maxLatitude": 23.575154,
          "minLongitude": 120.177826,
          "maxLongitude": 120.177826
        },
        "topSchools": [
          {
            "id": "094740",
            "name": "縣立崇文國小",
            "townshipName": "口湖鄉",
            "students": 50,
            "status": "正常"
          }
        ]
      },
      {
        "id": "6-wsjmzn",
        "geohash": "wsjmzn",
        "precision": 6,
        "count": 1,
        "totalStudents": 38,
        "latitude": 23.546916,
        "longitude": 120.194779,
        "bounds": {
          "minLatitude": 23.546916,
          "maxLatitude": 23.546916,
          "minLongitude": 120.194779,
          "maxLongitude": 120.194779
        },
        "topSchools": [
          {
            "id": "094522",
            "name": "縣立宜梧國中",
            "townshipName": "口湖鄉",
            "students": 38,
            "status": "正常"
          }
        ]
      },
      {
        "id": "6-wsjqr0",
        "geohash": "wsjqr0",
        "precision": 6,
        "count": 1,
        "totalStudents": 37,
        "latitude": 23.60029,
        "longitude": 120.190908,
        "bounds": {
          "minLatitude": 23.60029,
          "maxLatitude": 23.60029,
          "minLongitude": 120.190908,
          "maxLongitude": 120.190908
        },
        "topSchools": [
          {
            "id": "094739",
            "name": "縣立興南國小",
            "townshipName": "口湖鄉",
            "students": 37,
            "status": "正常"
          }
        ]
      },
      {
        "id": "6-wsjqn5",
        "geohash": "wsjqn5",
        "precision": 6,
        "count": 1,
        "totalStudents": 32,
        "latitude": 23.574051,
        "longitude": 120.154148,
        "bounds": {
          "minLatitude": 23.574051,
          "maxLatitude": 23.574051,
          "minLongitude": 120.154148,
          "maxLongitude": 120.154148
        },
        "topSchools": [
          {
            "id": "094737",
            "name": "縣立金湖國小",
            "townshipName": "口湖鄉",
            "students": 32,
            "status": "正常"
          }
        ]
      },
      {
        "id": "6-wsjqq8",
        "geohash": "wsjqq8",
        "precision": 6,
        "count": 1,
        "totalStudents": 31,
        "latitude": 23.600475,
        "longitude": 120.179436,
        "bounds": {
          "minLatitude": 23.600475,
          "maxLatitude": 23.600475,
          "minLongitude": 120.179436,
          "maxLongitude": 120.179436
        },
        "topSchools": [
          {
            "id": "094743",
            "name": "縣立頂湖國小",
            "townshipName": "口湖鄉",
            "students": 31,
            "status": "正常"
          }
        ]
      },
      {
        "id": "6-wsjqn2",
        "geohash": "wsjqn2",
        "precision": 6,
        "count": 1,
        "totalStudents": 25,
        "latitude": 23.559624,
        "longitude": 120.168334,
        "bounds": {
          "minLatitude": 23.559624,
          "maxLatitude": 23.559624,
          "minLongitude": 120.168334,
          "maxLongitude": 120.168334
        },
        "topSchools": [
          {
            "id": "094741",
            "name": "縣立成龍國小",
            "townshipName": "口湖鄉",
            "students": 25,
            "status": "正常"
          }
        ]
      },
      {
        "id": "6-wsjwem",
        "geohash": "wsjwem",
        "precision": 6,
        "count": 1,
        "totalStudents": 915,
        "latitude": 23.672555,
        "longitude": 120.387637,
        "bounds": {
          "minLatitude": 23.672555,
          "maxLatitude": 23.672555,
          "minLongitude": 120.387637,
          "maxLongitude": 120.387637
        },
        "topSchools": [
          {
            "id": "090413",
            "name": "國立土庫商工",
            "townshipName": "土庫鎮",
            "students": 915,
            "status": "正常"
          }
        ]
      },
      {
        "id": "6-wsjwew",
        "geohash": "wsjwew",
        "precision": 6,
        "count": 1,
        "totalStudents": 657,
        "latitude": 23.676103,
        "longitude": 120.388968,
        "bounds": {
          "minLatitude": 23.676103,
          "maxLatitude": 23.676103,
          "minLongitude": 120.388968,
          "maxLongitude": 120.388968
        },
        "topSchools": [
          {
            "id": "094659",
            "name": "縣立土庫國小",
            "townshipName": "土庫鎮",
            "students": 657,
            "status": "正常"
          }
        ]
      },
      {
        "id": "6-wsjwex",
        "geohash": "wsjwex",
        "precision": 6,
        "count": 1,
        "totalStudents": 530,
        "latitude": 23.68649,
        "longitude": 120.388658,
        "bounds": {
          "minLatitude": 23.68649,
          "maxLatitude": 23.68649,
          "minLongitude": 120.388658,
          "maxLongitude": 120.388658
        },
        "topSchools": [
          {
            "id": "094525",
            "name": "縣立土庫國中",
            "townshipName": "土庫鎮",
            "students": 530,
            "status": "正常"
          }
        ]
      },
      {
        "id": "6-wsjwfe",
        "geohash": "wsjwfe",
        "precision": 6,
        "count": 1,
        "totalStudents": 229,
        "latitude": 23.705523,
        "longitude": 120.352233,
        "bounds": {
          "minLatitude": 23.705523,
          "maxLatitude": 23.705523,
          "minLongitude": 120.352233,
          "maxLongitude": 120.352233
        },
        "topSchools": [
          {
            "id": "094660",
            "name": "縣立馬光國小",
            "townshipName": "土庫鎮",
            "students": 229,
            "status": "正常"
          }
        ]
      },
      {
        "id": "6-wsjwfc",
        "geohash": "wsjwfc",
        "precision": 6,
        "count": 1,
        "totalStudents": 219,
        "latitude": 23.694009,
        "longitude": 120.356829,
        "bounds": {
          "minLatitude": 23.694009,
          "maxLatitude": 23.694009,
          "minLongitude": 120.356829,
          "maxLongitude": 120.356829
        },
        "topSchools": [
          {
            "id": "094528",
            "name": "縣立馬光國中",
            "townshipName": "土庫鎮",
            "students": 219,
            "status": "正常"
          }
        ]
      },
      {
        "id": "6-wsjwg4",
        "geohash": "wsjwg4",
        "precision": 6,
        "count": 1,
        "totalStudents": 113,
        "latitude": 23.699507,
        "longitude": 120.371368,
        "bounds": {
          "minLatitude": 23.699507,
          "maxLatitude": 23.699507,
          "minLongitude": 120.371368,
          "maxLongitude": 120.371368
        },
        "topSchools": [
          {
            "id": "094662",
            "name": "縣立後埔國小",
            "townshipName": "土庫鎮",
            "students": 113,
            "status": "正常"
          }
        ]
      },
      {
        "id": "6-wsjwet",
        "geohash": "wsjwet",
        "precision": 6,
        "count": 1,
        "totalStudents": 112,
        "latitude": 23.673809,
        "longitude": 120.396373,
        "bounds": {
          "minLatitude": 23.673809,
          "maxLatitude": 23.673809,
          "minLongitude": 120.396373,
          "maxLongitude": 120.396373
        },
        "topSchools": [
          {
            "id": "094758",
            "name": "縣立越港國小",
            "townshipName": "土庫鎮",
            "students": 112,
            "status": "正常"
          }
        ]
      },
      {
        "id": "6-wsjwf8",
        "geohash": "wsjwf8",
        "precision": 6,
        "count": 1,
        "totalStudents": 30,
        "latitude": 23.686785,
        "longitude": 120.34881,
        "bounds": {
          "minLatitude": 23.686785,
          "maxLatitude": 23.686785,
          "minLongitude": 120.34881,
          "maxLongitude": 120.34881
        },
        "topSchools": [
          {
            "id": "094665",
            "name": "縣立宏崙國小",
            "townshipName": "土庫鎮",
            "students": 30,
            "status": "正常"
          }
        ]
      },
      {
        "id": "6-wsjwds",
        "geohash": "wsjwds",
        "precision": 6,
        "count": 1,
        "totalStudents": 20,
        "latitude": 23.669629,
        "longitude": 120.349335,
        "bounds": {
          "minLatitude": 23.669629,
          "maxLatitude": 23.669629,
          "minLongitude": 120.349335,
          "maxLongitude": 120.349335
        },
        "topSchools": [
          {
            "id": "094661",
            "name": "縣立埤腳國小",
            "townshipName": "土庫鎮",
            "students": 20,
            "status": "正常"
          }
        ]
      },
      {
        "id": "6-wsjwdd",
        "geohash": "wsjwdd",
        "precision": 6,
        "count": 1,
        "totalStudents": 20,
        "latitude": 23.656953,
        "longitude": 120.349524,
        "bounds": {
          "minLatitude": 23.656953,
          "maxLatitude": 23.656953,
          "minLongitude": 120.349524,
          "maxLongitude": 120.349524
        },
        "topSchools": [
          {
            "id": "094663",
            "name": "縣立秀潭國小",
            "townshipName": "土庫鎮",
            "students": 20,
            "status": "正常"
          }
        ]
      },
      {
        "id": "6-wsjx50",
        "geohash": "wsjx50",
        "precision": 6,
        "count": 1,
        "totalStudents": 16,
        "latitude": 23.733108,
        "longitude": 120.371179,
        "bounds": {
          "minLatitude": 23.733108,
          "maxLatitude": 23.733108,
          "minLongitude": 120.371179,
          "maxLongitude": 120.371179
        },
        "topSchools": [
          {
            "id": "094664",
            "name": "縣立新庄國小",
            "townshipName": "土庫鎮",
            "students": 16,
            "status": "正常"
          }
        ]
      },
      {
        "id": "6-wsjws2",
        "geohash": "wsjws2",
        "precision": 6,
        "count": 1,
        "totalStudents": 293,
        "latitude": 23.644542,
        "longitude": 120.431608,
        "bounds": {
          "minLatitude": 23.644542,
          "maxLatitude": 23.644542,
          "minLongitude": 120.431608,
          "maxLongitude": 120.431608
        },
        "topSchools": [
          {
            "id": "094643",
            "name": "縣立大埤國小",
            "townshipName": "大埤鄉",
            "students": 293,
            "status": "正常"
          }
        ]
      },
      {
        "id": "6-wsjwkr",
        "geohash": "wsjwkr",
        "precision": 6,
        "count": 1,
        "totalStudents": 206,
        "latitude": 23.641878,
        "longitude": 120.429847,
        "bounds": {
          "minLatitude": 23.641878,
          "maxLatitude": 23.641878,
          "minLongitude": 120.429847,
          "maxLongitude": 120.429847
        },
        "topSchools": [
          {
            "id": "094503",
            "name": "縣立大埤國中",
            "townshipName": "大埤鄉",
            "students": 206,
            "status": "正常"
          }
        ]
      },
      {
        "id": "6-wsjwec",
        "geohash": "wsjwec",
        "precision": 6,
        "count": 1,
        "totalStudents": 57,
        "latitude": 23.650399,
        "longitude": 120.40033,
        "bounds": {
          "minLatitude": 23.650399,
          "maxLatitude": 23.650399,
          "minLongitude": 120.40033,
          "maxLongitude": 120.40033
        },
        "topSchools": [
          {
            "id": "094647",
            "name": "縣立聯美國小",
            "townshipName": "大埤鄉",
            "students": 57,
            "status": "正常"
          }
        ]
      },
      {
        "id": "6-wsjw7y",
        "geohash": "wsjw7y",
        "precision": 6,
        "count": 1,
        "totalStudents": 56,
        "latitude": 23.633529,
        "longitude": 120.401494,
        "bounds": {
          "minLatitude": 23.633529,
          "maxLatitude": 23.633529,
          "minLongitude": 120.401494,
          "maxLongitude": 120.401494
        },
        "topSchools": [
          {
            "id": "094644",
            "name": "縣立舊庄國小",
            "townshipName": "大埤鄉",
            "students": 56,
            "status": "正常"
          }
        ]
      },
      {
        "id": "6-wsjws7",
        "geohash": "wsjws7",
        "precision": 6,
        "count": 1,
        "totalStudents": 54,
        "latitude": 23.662025,
        "longitude": 120.422689,
        "bounds": {
          "minLatitude": 23.662025,
          "maxLatitude": 23.662025,
          "minLongitude": 120.422689,
          "maxLongitude": 120.422689
        },
        "topSchools": [
          {
            "id": "094645",
            "name": "縣立仁和國小",
            "townshipName": "大埤鄉",
            "students": 54,
            "status": "正常"
          }
        ]
      },
      {
        "id": "6-wsjwt0",
        "geohash": "wsjwt0",
        "precision": 6,
        "count": 1,
        "totalStudents": 35,
        "latitude": 23.647227,
        "longitude": 120.459271,
        "bounds": {
          "minLatitude": 23.647227,
          "maxLatitude": 23.647227,
          "minLongitude": 120.459271,
          "maxLongitude": 120.459271
        },
        "topSchools": [
          {
            "id": "094646",
            "name": "縣立嘉興國小",
            "townshipName": "大埤鄉",
            "students": 35,
            "status": "正常"
          }
        ]
      },
      {
        "id": "6-wsjw99",
        "geohash": "wsjw99",
        "precision": 6,
        "count": 1,
        "totalStudents": 328,
        "latitude": 23.652188,
        "longitude": 120.309182,
        "bounds": {
          "minLatitude": 23.652188,
          "maxLatitude": 23.652188,
          "minLongitude": 120.309182,
          "maxLongitude": 120.309182
        },
        "topSchools": [
          {
            "id": "094715",
            "name": "縣立元長國小",
            "townshipName": "元長鄉",
            "students": 328,
            "status": "正常"
          }
        ]
      },
      {
        "id": "6-wsjw9b",
        "geohash": "wsjw9b",
        "precision": 6,
        "count": 1,
        "totalStudents": 182,
        "latitude": 23.645685,
        "longitude": 120.316567,
        "bounds": {
          "minLatitude": 23.645685,
          "maxLatitude": 23.645685,
          "minLongitude": 120.316567,
          "maxLongitude": 120.316567
        },
        "topSchools": [
          {
            "id": "094514",
            "name": "縣立元長國中",
            "townshipName": "元長鄉",
            "students": 182,
            "status": "正常"
          }
        ]
      },