{
  "generatedAt": "2026-03-09T18:20:24.788Z",
  "county": {
    "id": "基隆市",
    "name": "基隆市",
    "shortLabel": "基隆",
    "region": "北部"
  },
  "precisions": {
    "5": [
      {
        "id": "5-wsqwf",
        "geohash": "wsqwf",
        "precision": 5,
        "count": 29,
        "totalStudents": 13140,
        "latitude": 25.122411,
        "longitude": 121.746986,
        "bounds": {
          "minLatitude": 25.093718,
          "maxLatitude": 25.136639,
          "minLongitude": 121.729935,
          "maxLongitude": 121.770523
        },
        "topSchools": [
          {
            "id": "171308",
            "name": "輔大聖心高中",
            "townshipName": "中山區",
            "students": 1137,
            "status": "正常"
          },
          {
            "id": "173502",
            "name": "市立銘傳國中",
            "townshipName": "仁愛區",
            "students": 1124,
            "status": "正常"
          },
          {
            "id": "1082",
            "name": "崇右影藝科技大學",
            "townshipName": "信義區",
            "students": 1114,
            "status": "正常"
          },
          {
            "id": "173612",
            "name": "市立信義國小",
            "townshipName": "仁愛區",
            "students": 1112,
            "status": "正常"
          }
        ]
      },
      {
        "id": "5-wsqx4",
        "geohash": "wsqx4",
        "precision": 5,
        "count": 13,
        "totalStudents": 9191,
        "latitude": 25.148432,
        "longitude": 121.75023,
        "bounds": {
          "minLatitude": 25.136914,
          "maxLatitude": 25.155681,
          "minLongitude": 121.72915,
          "maxLongitude": 121.771125
        },
        "topSchools": [
          {
            "id": "1185",
            "name": "德育護理健康學院",
            "townshipName": "中山區",
            "students": 3167,
            "status": "正常"
          },
          {
            "id": "171306",
            "name": "私立二信高中",
            "townshipName": "中正區",
            "students": 2947,
            "status": "正常"
          },
          {
            "id": "170403",
            "name": "國立海洋大學附屬基隆海事",
            "townshipName": "中正區",
            "students": 998,
            "status": "正常"
          },
          {
            "id": "173304",
            "name": "市立中山高中",
            "townshipName": "中山區",
            "students": 585,
            "status": "正常"
          }
        ]
      },
      {
        "id": "5-wsqwc",
        "geohash": "wsqwc",
        "precision": 5,
        "count": 8,
        "totalStudents": 4917,
        "latitude": 25.110763,
        "longitude": 121.714792,
        "bounds": {
          "minLatitude": 25.094076,
          "maxLatitude": 25.127317,
          "minLongitude": 121.689486,
          "maxLongitude": 121.727787
        },
        "topSchools": [
          {
            "id": "170404",
            "name": "國立基隆商工",
            "townshipName": "七堵區",
            "students": 1187,
            "status": "正常"
          },
          {
            "id": "173633",
            "name": "市立建德國小",
            "townshipName": "安樂區",
            "students": 1102,
            "status": "正常"
          },
          {
            "id": "173626",
            "name": "市立七堵國小",
            "townshipName": "七堵區",
            "students": 909,
            "status": "正常"
          },
          {
            "id": "173512",
            "name": "市立建德國中",
            "townshipName": "安樂區",
            "students": 646,
            "status": "正常"
          }
        ]
      },
      {
        "id": "5-wsqw9",
        "geohash": "wsqw9",
        "precision": 5,
        "count": 5,
        "totalStudents": 1740,
        "latitude": 25.085216,
        "longitude": 121.701405,
        "bounds": {
          "minLatitude": 25.079712,
          "maxLatitude": 25.091661,
          "minLongitude": 121.69223,
          "maxLongitude": 121.71354
        },
        "topSchools": [
          {
            "id": "173628",
            "name": "市立五堵國小",
            "townshipName": "七堵區",
            "students": 820,
            "status": "正常"
          },
          {
            "id": "173513",
            "name": "市立百福國中",
            "townshipName": "七堵區",
            "students": 421,
            "status": "正常"
          },
          {
            "id": "173639",
            "name": "市立長興國小",
            "townshipName": "七堵區",
            "students": 208,
            "status": "正常"
          },
          {
            "id": "173629",
            "name": "市立堵南國小",
            "townshipName": "七堵區",
            "students": 150,
            "status": "正常"
          }
        ]
      },
      {
        "id": "5-wsqx1",
        "geohash": "wsqx1",
        "precision": 5,
        "count": 4,
        "totalStudents": 2327,
        "latitude": 25.144766,
        "longitude": 121.706864,
        "bounds": {
          "minLatitude": 25.137528,
          "maxLatitude": 25.15604,
          "minLongitude": 121.694076,
          "maxLongitude": 121.720046
        },
        "topSchools": [
          {
            "id": "173618",
            "name": "市立武崙國小",
            "townshipName": "安樂區",
            "students": 1103,
            "status": "正常"
          },
          {
            "id": "173516",
            "name": "市立武崙國中",
            "townshipName": "安樂區",
            "students": 683,
            "status": "正常"
          },
          {
            "id": "173619",
            "name": "市立中和國小",
            "townshipName": "中山區",
            "students": 398,
            "status": "正常"
          },
          {
            "id": "173638",
            "name": "市立隆聖國小",
            "townshipName": "安樂區",
            "students": 143,
            "status": "正常"
          }
        ]
      },
      {
        "id": "5-wsqx5",
        "geohash": "wsqx5",
        "precision": 5,
        "count": 4,
        "totalStudents": 10999,
        "latitude": 25.141738,
        "longitude": 121.783835,
        "bounds": {
          "minLatitude": 25.137591,
          "maxLatitude": 25.150852,
          "minLongitude": 121.772607,
          "maxLongitude": 121.797311
        },
        "topSchools": [
          {
            "id": "0012",
            "name": "國立臺灣海洋大學",
            "townshipName": "中正區",
            "students": 9102,
            "status": "正常"
          },
          {
            "id": "173641",
            "name": "市立深美國小",
            "townshipName": "信義區",
            "students": 936,
            "status": "正常"
          },
          {
            "id": "173605",
            "name": "市立八斗國小",
            "townshipName": "中正區",
            "students": 517,
            "status": "正常"
          },
          {
            "id": "173314",
            "name": "市立八斗高中",
            "townshipName": "中正區",
            "students": 444,
            "status": "正常"
          }
        ]
      },
      {
        "id": "5-wsqwb",
        "geohash": "wsqwb",
        "precision": 5,
        "count": 1,
        "totalStudents": 48,
        "latitude": 25.107454,
        "longitude": 121.665233,
        "bounds": {
          "minLatitude": 25.107454,
          "maxLatitude": 25.107454,
          "minLongitude": 121.665233,
          "maxLongitude": 121.665233
        },
        "topSchools": [
          {
            "id": "173631",
            "name": "市立復興國小",
            "townshipName": "七堵區",
            "students": 48,
            "status": "正常"
          }
        ]
      },
      {
        "id": "5-wsqwg",
        "geohash": "wsqwg",
        "precision": 5,
        "count": 1,
        "totalStudents": 357,
        "latitude": 25.128819,
        "longitude": 121.783696,
        "bounds": {
          "minLatitude": 25.128819,
          "maxLatitude": 25.128819,
          "minLongitude": 121.783696,
          "maxLongitude": 121.783696
        },
        "topSchools": [
          {
            "id": "173608",
            "name": "市立深澳國小",
            "townshipName": "信義區",
            "students": 357,
            "status": "正常"
          }
        ]
      }
    ],
    "6": [
      {
        "id": "6-wsqwfx",
        "geohash": "wsqwfx",
        "precision": 6,
        "count": 5,
        "totalStudents": 2715,
        "latitude": 25.132632,
        "longitude": 121.755235,
        "bounds": {
          "minLatitude": 25.131244,
          "maxLatitude": 25.13549,
          "minLongitude": 121.751756,
          "maxLongitude": 121.760562
        },
        "topSchools": [
          {
            "id": "1082",
            "name": "崇右影藝科技大學",
            "townshipName": "信義區",
            "students": 1114,
            "status": "正常"
          },
          {
            "id": "173607",
            "name": "市立中興國小",
            "townshipName": "信義區",
            "students": 514,
            "status": "正常"
          },
          {
            "id": "173505",
            "name": "市立中正國中",
            "townshipName": "中正區",
            "students": 445,
            "status": "正常"
          },
          {
            "id": "173606",
            "name": "市立東信國小",
            "townshipName": "信義區",
            "students": 357,
            "status": "正常"
          }
        ]
      },
      {
        "id": "6-wsqx4c",
        "geohash": "wsqx4c",
        "precision": 6,
        "count": 4,
        "totalStudents": 4426,
        "latitude": 25.146265,
        "longitude": 121.769096,
        "bounds": {
          "minLatitude": 25.144111,
          "maxLatitude": 25.147332,
          "minLongitude": 121.763278,
          "maxLongitude": 121.771125
        },
        "topSchools": [
          {
            "id": "171306",
            "name": "私立二信高中",
            "townshipName": "中正區",
            "students": 2947,
            "status": "正常"
          },
          {
            "id": "170403",
            "name": "國立海洋大學附屬基隆海事",
            "townshipName": "中正區",
            "students": 998,
            "status": "正常"
          },
          {
            "id": "173602",
            "name": "市立正濱國小",
            "townshipName": "中正區",
            "students": 383,
            "status": "正常"
          },
          {
            "id": "173510",
            "name": "市立正濱國中",
            "townshipName": "中正區",
            "students": 98,
            "status": "正常"
          }
        ]
      },
      {
        "id": "6-wsqwf4",
        "geohash": "wsqwf4",
        "precision": 6,
        "count": 4,
        "totalStudents": 1384,
        "latitude": 25.107324,
        "longitude": 121.735471,
        "bounds": {
          "minLatitude": 25.105673,
          "maxLatitude": 25.108565,
          "minLongitude": 121.732555,
          "maxLongitude": 121.738573
        },
        "topSchools": [
          {
            "id": "170302",
            "name": "國立基隆高中",
            "townshipName": "暖暖區",
            "students": 681,
            "status": "正常"
          },
          {
            "id": "173307",
            "name": "市立暖暖高中",
            "townshipName": "暖暖區",
            "students": 452,
            "status": "正常"
          },
          {
            "id": "173636",
            "name": "市立暖江國小",
            "townshipName": "暖暖區",
            "students": 152,
            "status": "正常"
          },
          {
            "id": "173634",
            "name": "市立八堵國小",
            "townshipName": "暖暖區",
            "students": 99,
            "status": "正常"
          }
        ]
      },
      {
        "id": "6-wsqwc8",
        "geohash": "wsqwc8",
        "precision": 6,
        "count": 3,
        "totalStudents": 2606,
        "latitude": 25.095462,
        "longitude": 121.7158,
        "bounds": {
          "minLatitude": 25.094076,
          "maxLatitude": 25.098083,
          "minLongitude": 121.713966,
          "maxLongitude": 121.717202
        },
        "topSchools": [
          {
            "id": "170404",
            "name": "國立基隆商工",
            "townshipName": "七堵區",
            "students": 1187,
            "status": "正常"
          },
          {
            "id": "173626",
            "name": "市立七堵國小",
            "townshipName": "七堵區",
            "students": 909,
            "status": "正常"
          },
          {
            "id": "173501",
            "name": "市立明德國中",
            "townshipName": "七堵區",
            "students": 510,
            "status": "正常"
          }
        ]
      },
      {
        "id": "6-wsqwfp",
        "geohash": "wsqwfp",
        "precision": 6,
        "count": 3,
        "totalStudents": 2354,
        "latitude": 25.134647,
        "longitude": 121.731585,
        "bounds": {
          "minLatitude": 25.131691,
          "maxLatitude": 25.136639,
          "minLongitude": 121.729935,
          "maxLongitude": 121.733837
        },
        "topSchools": [
          {
            "id": "171308",
            "name": "輔大聖心高中",
            "townshipName": "中山區",
            "students": 1137,
            "status": "正常"
          },
          {
            "id": "173306",
            "name": "市立安樂高中",
            "townshipName": "安樂區",
            "students": 821,
            "status": "正常"
          },
          {
            "id": "173616",
            "name": "市立安樂國小",
            "townshipName": "安樂區",
            "students": 396,
            "status": "正常"
          }
        ]
      },
      {
        "id": "6-wsqwfq",
        "geohash": "wsqwfq",
        "precision": 6,
        "count": 3,
        "totalStudents": 1923,
        "latitude": 25.128403,
        "longitude": 121.747446,
        "bounds": {
          "minLatitude": 25.127312,
          "maxLatitude": 25.130219,
          "minLongitude": 121.745922,
          "maxLongitude": 121.749524
        },
        "topSchools": [
          {
            "id": "173612",
            "name": "市立信義國小",
            "townshipName": "仁愛區",
            "students": 1112,
            "status": "正常"
          },
          {
            "id": "173611",
            "name": "市立仁愛國小",
            "townshipName": "仁愛區",
            "students": 681,
            "status": "正常"
          },
          {
            "id": "171405",
            "name": "私立光隆家商",
            "townshipName": "信義區",
            "students": 130,
            "status": "正常"
          }
        ]
      },
      {
        "id": "6-wsqwfy",
        "geohash": "wsqwfy",
        "precision": 6,
        "count": 3,
        "totalStudents": 352,
        "latitude": 25.129846,
        "longitude": 121.767393,
        "bounds": {
          "minLatitude": 25.129077,
          "maxLatitude": 25.130893,
          "minLongitude": 121.763166,
          "maxLongitude": 121.770523
        },
        "topSchools": [
          {
            "id": "173503",
            "name": "市立信義國中",
            "townshipName": "信義區",
            "students": 202,
            "status": "正常"
          },
          {
            "id": "173610",
            "name": "市立東光國小",
            "townshipName": "信義區",
            "students": 77,
            "status": "正常"
          },
          {
            "id": "171407",
            "name": "私立培德工家",
            "townshipName": "信義區",
            "students": 73,
            "status": "正常"
          }
        ]
      },
      {
        "id": "6-wsqw9x",
        "geohash": "wsqw9x",
        "precision": 6,
        "count": 2,
        "totalStudents": 349,
        "latitude": 25.08968,
        "longitude": 121.710911,
        "bounds": {
          "minLatitude": 25.087699,
          "maxLatitude": 25.091661,
          "minLongitude": 121.708283,
          "maxLongitude": 121.71354
        },
        "topSchools": [
          {
            "id": "173639",
            "name": "市立長興國小",
            "townshipName": "七堵區",
            "students": 208,
            "status": "正常"
          },
          {
            "id": "173627",
            "name": "市立華興國小",
            "townshipName": "七堵區",
            "students": 141,
            "status": "正常"
          }
        ]
      },
      {
        "id": "6-wsqx44",
        "geohash": "wsqx44",
        "precision": 6,
        "count": 2,
        "totalStudents": 3283,
        "latitude": 25.149918,
        "longitude": 121.734049,
        "bounds": {
          "minLatitude": 25.149373,
          "maxLatitude": 25.150462,
          "minLongitude": 121.72915,
          "maxLongitude": 121.738949
        },
        "topSchools": [
          {
            "id": "1185",
            "name": "德育護理健康學院",
            "townshipName": "中山區",
            "students": 3167,
            "status": "正常"
          },
          {
            "id": "173623",
            "name": "市立中華國小",
            "townshipName": "中山區",
            "students": 116,
            "status": "正常"
          }
        ]
      },
      {
        "id": "6-wsqx45",
        "geohash": "wsqx45",
        "precision": 6,
        "count": 2,
        "totalStudents": 912,
        "latitude": 25.154609,
        "longitude": 121.730874,
        "bounds": {
          "minLatitude": 25.153938,
          "maxLatitude": 25.155279,
          "minLongitude": 121.730834,
          "maxLongitude": 121.730914
        },
        "topSchools": [
          {
            "id": "173304",
            "name": "市立中山高中",
            "townshipName": "中山區",
            "students": 585,
            "status": "正常"
          },
          {
            "id": "173625",
            "name": "市立德和國小",
            "townshipName": "中山區",
            "students": 327,
            "status": "正常"
          }
        ]
      },
      {
        "id": "6-wsqwfr",
        "geohash": "wsqwfr",
        "precision": 6,
        "count": 2,
        "totalStudents": 153,
        "latitude": 25.136204,
        "longitude": 121.744985,
        "bounds": {
          "minLatitude": 25.135824,
          "maxLatitude": 25.136585,
          "minLongitude": 121.73952,
          "maxLongitude": 121.750449
        },
        "topSchools": [
          {
            "id": "173601",
            "name": "市立中正國小",
            "townshipName": "中正區",
            "students": 85,
            "status": "正常"
          },
          {
            "id": "173622",
            "name": "市立港西國小",
            "townshipName": "中山區",
            "students": 68,
            "status": "正常"
          }
        ]
      },
      {
        "id": "6-wsqwfk",
        "geohash": "wsqwfk",
        "precision": 6,
        "count": 2,
        "totalStudents": 243,
        "latitude": 25.119537,
        "longitude": 121.74534,
        "bounds": {
          "minLatitude": 25.118925,
          "maxLatitude": 25.120148,
          "minLongitude": 121.744389,
          "maxLongitude": 121.746291
        },
        "topSchools": [
          {
            "id": "173614",
            "name": "市立南榮國小",
            "townshipName": "仁愛區",
            "students": 125,
            "status": "正常"
          },
          {
            "id": "173508",
            "name": "市立南榮國中",
            "townshipName": "仁愛區",
            "students": 118,
            "status": "正常"
          }
        ]
      },
      {
        "id": "6-wsqw9j",
        "geohash": "wsqw9j",
        "precision": 6,
        "count": 1,
        "totalStudents": 820,
        "latitude": 25.079712,
        "longitude": 121.69459,
        "bounds": {
          "minLatitude": 25.079712,
          "maxLatitude": 25.079712,
          "minLongitude": 121.69459,
          "maxLongitude": 121.69459
        },
        "topSchools": [
          {
            "id": "173628",
            "name": "市立五堵國小",
            "townshipName": "七堵區",
            "students": 820,
            "status": "正常"
          }
        ]
      },
      {
        "id": "6-wsqw9q",
        "geohash": "wsqw9q",
        "precision": 6,
        "count": 1,
        "totalStudents": 421,
        "latitude": 25.083608,
        "longitude": 121.698381,
        "bounds": {
          "minLatitude": 25.083608,
          "maxLatitude": 25.083608,
          "minLongitude": 121.698381,
          "maxLongitude": 121.698381
        },
        "topSchools": [
          {
            "id": "173513",
            "name": "市立百福國中",
            "townshipName": "七堵區",
            "students": 421,
            "status": "正常"
          }
        ]
      },
      {
        "id": "6-wsqw9n",
        "geohash": "wsqw9n",
        "precision": 6,
        "count": 1,
        "totalStudents": 150,
        "latitude": 25.083402,
        "longitude": 121.69223,
        "bounds": {
          "minLatitude": 25.083402,
          "maxLatitude": 25.083402,
          "minLongitude": 121.69223,
          "maxLongitude": 121.69223
        },
        "topSchools": [
          {
            "id": "173629",
            "name": "市立堵南國小",
            "townshipName": "七堵區",
            "students": 150,
            "status": "正常"
          }
        ]
      },
      {
        "id": "6-wsqwcg",
        "geohash": "wsqwcg",
        "precision": 6,
        "count": 1,
        "totalStudents": 128,
        "latitude": 25.111552,
        "longitude": 121.727787,
        "bounds": {
          "minLatitude": 25.111552,
          "maxLatitude": 25.111552,
          "minLongitude": 121.727787,
          "maxLongitude": 121.727787
        },
        "topSchools": [
          {
            "id": "173632",
            "name": "市立尚仁國小",
            "townshipName": "七堵區",
            "students": 128,
            "status": "正常"
          }
        ]
      },
      {
        "id": "6-wsqwc5",
        "geohash": "wsqwc5",
        "precision": 6,
        "count": 1,
        "totalStudents": 92,
        "latitude": 25.110146,
        "longitude": 121.689486,
        "bounds": {
          "minLatitude": 25.110146,
          "maxLatitude": 25.110146,
          "minLongitude": 121.689486,
          "maxLongitude": 121.689486
        },
        "topSchools": [
          {
            "id": "173630",
            "name": "市立瑪陵國小",
            "townshipName": "七堵區",
            "students": 92,
            "status": "正常"
          }
        ]
      },
      {
        "id": "6-wsqwbd",
        "geohash": "wsqwbd",
        "precision": 6,
        "count": 1,
        "totalStudents": 48,
        "latitude": 25.107454,
        "longitude": 121.665233,
        "bounds": {
          "minLatitude": 25.107454,
          "maxLatitude": 25.107454,
          "minLongitude": 121.665233,
          "maxLongitude": 121.665233
        },
        "topSchools": [
          {
            "id": "173631",
            "name": "市立復興國小",
            "townshipName": "七堵區",
            "students": 48,
            "status": "正常"
          }
        ]
      },
      {
        "id": "6-wsqx1c",
        "geohash": "wsqx1c",
        "precision": 6,
        "count": 1,
        "totalStudents": 398,
        "latitude": 25.146727,
        "longitude": 121.720046,
        "bounds": {
          "minLatitude": 25.146727,
          "maxLatitude": 25.146727,
          "minLongitude": 121.720046,
          "maxLongitude": 121.720046
        },
        "topSchools": [
          {
            "id": "173619",
            "name": "市立中和國小",
            "townshipName": "中山區",
            "students": 398,
            "status": "正常"
          }
        ]
      },
      {
        "id": "6-wsqx41",
        "geohash": "wsqx41",
        "precision": 6,
        "count": 1,
        "totalStudents": 118,
        "latitude": 25.146566,
        "longitude": 121.735923,
        "bounds": {
          "minLatitude": 25.146566,
          "maxLatitude": 25.146566,
          "minLongitude": 121.735923,
          "maxLongitude": 121.735923
        },
        "topSchools": [
          {
            "id": "173621",
            "name": "市立中山國小",
            "townshipName": "中山區",
            "students": 118,
            "status": "正常"
          }
        ]
      },
      {
        "id": "6-wsqx43",
        "geohash": "wsqx43",
        "precision": 6,
        "count": 1,
        "totalStudents": 88,
        "latitude": 25.147347,
        "longitude": 121.746704,
        "bounds": {
          "minLatitude": 25.147347,
          "maxLatitude": 25.147347,
          "minLongitude": 121.746704,
          "maxLongitude": 121.746704
        },
        "topSchools": [
          {
            "id": "173620",
            "name": "市立仙洞國小",
            "townshipName": "中山區",
            "students": 88,
            "status": "正常"
          }
        ]
      },
      {
        "id": "6-wsqx54",
        "geohash": "wsqx54",
        "precision": 6,
        "count": 1,
        "totalStudents": 9102,
        "latitude": 25.150852,
        "longitude": 121.772607,
        "bounds": {
          "minLatitude": 25.150852,
          "maxLatitude": 25.150852,
          "minLongitude": 121.772607,
          "maxLongitude": 121.772607
        },
        "topSchools": [
          {
            "id": "0012",
            "name": "國立臺灣海洋大學",
            "townshipName": "中正區",
            "students": 9102,
            "status": "正常"
          }
        ]
      },
      {
        "id": "6-wsqx58",
        "geohash": "wsqx58",
        "precision": 6,
        "count": 1,
        "totalStudents": 517,
        "latitude": 25.138007,
        "longitude": 121.797311,
        "bounds": {
          "minLatitude": 25.138007,
          "maxLatitude": 25.138007,
          "minLongitude": 121.797311,
          "maxLongitude": 121.797311
        },
        "topSchools": [
          {
            "id": "173605",
            "name": "市立八斗國小",
            "townshipName": "中正區",
            "students": 517,
            "status": "正常"
          }
        ]
      },
      {
        "id": "6-wsqx52",
        "geohash": "wsqx52",
        "precision": 6,
        "count": 1,
        "totalStudents": 444,
        "latitude": 25.140501,
        "longitude": 121.7881,
        "bounds": {
          "minLatitude": 25.140501,
          "maxLatitude": 25.140501,
          "minLongitude": 121.7881,
          "maxLongitude": 121.7881
        },
        "topSchools": [
          {
            "id": "173314",
            "name": "市立八斗高中",
            "townshipName": "中正區",
            "students": 444,
            "status": "正常"
          }
        ]
      },
      {
        "id": "6-wsqx4g",
        "geohash": "wsqx4g",
        "precision": 6,
        "count": 1,
        "totalStudents": 69,
        "latitude": 25.155681,
        "longitude": 121.766072,
        "bounds": {
          "minLatitude": 25.155681,
          "maxLatitude": 25.155681,
          "minLongitude": 121.766072,
          "maxLongitude": 121.766072
        },
        "topSchools": [
          {
            "id": "173604",
            "name": "市立和平國小",
            "townshipName": "中正區",
            "students": 69,
            "status": "正常"
          }
        ]
      },
      {
        "id": "6-wsqx4f",
        "geohash": "wsqx4f",
        "precision": 6,
        "count": 1,
        "totalStudents": 50,
        "latitude": 25.148996,
        "longitude": 121.76676,
        "bounds": {
          "minLatitude": 25.148996,
          "maxLatitude": 25.148996,
          "minLongitude": 121.76676,
          "maxLongitude": 121.76676
        },
        "topSchools": [
          {
            "id": "173603",
            "name": "市立忠孝國小",
            "townshipName": "中正區",
            "students": 50,
            "status": "正常"
          }
        ]
      },
      {
        "id": "6-wsqwft",
        "geohash": "wsqwft",
        "precision": 6,
        "count": 1,
        "totalStudents": 1124,
        "latitude": 25.123519,
        "longitude": 121.750672,
        "bounds": {
          "minLatitude": 25.123519,
          "maxLatitude": 25.123519,
          "minLongitude": 121.750672,
          "maxLongitude": 121.750672
        },
        "topSchools": [
          {
            "id": "173502",
            "name": "市立銘傳國中",
            "townshipName": "仁愛區",
            "students": 1124,
            "status": "正常"
          }
        ]
      },
      {
        "id": "6-wsqwfn",
        "geohash": "wsqwfn",
        "precision": 6,
        "count": 1,
        "totalStudents": 344,
        "latitude": 25.126034,
        "longitude": 121.738598,
        "bounds": {
          "minLatitude": 25.126034,
          "maxLatitude": 25.126034,
          "minLongitude": 121.738598,
          "maxLongitude": 121.738598
        },
        "topSchools": [
          {
            "id": "173613",
            "name": "市立成功國小",
            "townshipName": "仁愛區",
            "students": 344,
            "status": "正常"
          }
        ]
      },
      {
        "id": "6-wsqx18",
        "geohash": "wsqx18",
        "precision": 6,
        "count": 1,
        "totalStudents": 1103,
        "latitude": 25.138769,
        "longitude": 121.706889,
        "bounds": {
          "minLatitude": 25.138769,
          "maxLatitude": 25.138769,
          "minLongitude": 121.706889,
          "maxLongitude": 121.706889
        },
        "topSchools": [
          {
            "id": "173618",
            "name": "市立武崙國小",
            "townshipName": "安樂區",
            "students": 1103,
            "status": "正常"
          }
        ]
      },
      {
        "id": "6-wsqwcv",
        "geohash": "wsqwcv",
        "precision": 6,
        "count": 1,
        "totalStudents": 1102,
        "latitude": 25.124963,
        "longitude": 121.721097,
        "bounds": {
          "minLatitude": 25.124963,
          "maxLatitude": 25.124963,
          "minLongitude": 121.721097,
          "maxLongitude": 121.721097
        },
        "topSchools": [
          {
            "id": "173633",
            "name": "市立建德國小",
            "townshipName": "安樂區",
            "students": 1102,
            "status": "正常"
          }
        ]
      },
      {
        "id": "6-wsqx12",
        "geohash": "wsqx12",
        "precision": 6,
        "count": 1,
        "totalStudents": 683,
        "latitude": 25.137528,
        "longitude": 121.706447,
        "bounds": {
          "minLatitude": 25.137528,
          "maxLatitude": 25.137528,
          "minLongitude": 121.706447,
          "maxLongitude": 121.706447
        },
        "topSchools": [
          {
            "id": "173516",
            "name": "市立武崙國中",
            "townshipName": "安樂區",
            "students": 683,
            "status": "正常"
          }
        ]
      },
      {
        "id": "6-wsqwcy",
        "geohash": "wsqwcy",
        "precision": 6,
        "count": 1,
        "totalStudents": 646,
        "latitude": 25.127317,
        "longitude": 121.721501,
        "bounds": {
          "minLatitude": 25.127317,
          "maxLatitude": 25.127317,
          "minLongitude": 121.721501,
          "maxLongitude": 121.721501
        },
        "topSchools": [
          {
            "id": "173512",
            "name": "市立建德國中",
            "townshipName": "安樂區",
            "students": 646,
            "status": "正常"
          }
        ]
      },
      {
        "id": "6-wsqwcw",
        "geohash": "wsqwcw",
        "precision": 6,
        "count": 1,
        "totalStudents": 343,
        "latitude": 25.125743,
        "longitude": 121.711066,
        "bounds": {
          "minLatitude": 25.125743,
          "maxLatitude": 25.125743,
          "minLongitude": 121.711066,
          "maxLongitude": 121.711066
        },
        "topSchools": [
          {
            "id": "173640",
            "name": "市立長樂國小",
            "townshipName": "安樂區",
            "students": 343,
            "status": "正常"
          }
        ]
      },
      {
        "id": "6-wsqx40",
        "geohash": "wsqx40",
        "precision": 6,
        "count": 1,
        "totalStudents": 245,
        "latitude": 25.136914,
        "longitude": 121.731304,
        "bounds": {
          "minLatitude": 25.136914,
          "maxLatitude": 25.136914,
          "minLongitude": 121.731304,
          "maxLongitude": 121.731304
        },
        "topSchools": [
          {
            "id": "173617",
            "name": "市立西定國小",
            "townshipName": "安樂區",
            "students": 245,
            "status": "正常"
          }
        ]
      },
      {
        "id": "6-wsqx15",
        "geohash": "wsqx15",
        "precision": 6,
        "count": 1,
        "totalStudents": 143,
        "latitude": 25.15604,
        "longitude": 121.694076,
        "bounds": {
          "minLatitude": 25.15604,
          "maxLatitude": 25.15604,
          "minLongitude": 121.694076,
          "maxLongitude": 121.694076
        },
        "topSchools": [
          {
            "id": "173638",
            "name": "市立隆聖國小",
            "townshipName": "安樂區",
            "students": 143,
            "status": "正常"
          }
        ]
      },
      {
        "id": "6-wsqx50",
        "geohash": "wsqx50",
        "precision": 6,
        "count": 1,
        "totalStudents": 936,
        "latitude": 25.137591,
        "longitude": 121.777321,
        "bounds": {
          "minLatitude": 25.137591,
          "maxLatitude": 25.137591,
          "minLongitude": 121.777321,
          "maxLongitude": 121.777321
        },
        "topSchools": [
          {
            "id": "173641",
            "name": "市立深美國小",
            "townshipName": "信義區",
            "students": 936,
            "status": "正常"
          }
        ]
      },
      {
        "id": "6-wsqwfw",
        "geohash": "wsqwfw",
        "precision": 6,
        "count": 1,
        "totalStudents": 738,
        "latitude": 25.129341,
        "longitude": 121.759479,
        "bounds": {
          "minLatitude": 25.129341,
          "maxLatitude": 25.129341,
          "minLongitude": 121.759479,
          "maxLongitude": 121.759479
        },
        "topSchools": [
          {
            "id": "170301",
            "name": "國立基隆女中",
            "townshipName": "信義區",
            "students": 738,
            "status": "正常"
          }
        ]
      },
      {
        "id": "6-wsqwgq",
        "geohash": "wsqwgq",
        "precision": 6,
        "count": 1,
        "totalStudents": 357,
        "latitude": 25.128819,
        "longitude": 121.783696,
        "bounds": {
          "minLatitude": 25.128819,
          "maxLatitude": 25.128819,
          "minLongitude": 121.783696,
          "maxLongitude": 121.783696
        },
        "topSchools": [
          {
            "id": "173608",
            "name": "市立深澳國小",
            "townshipName": "信義區",
            "students": 357,
            "status": "正常"
          }
        ]
      },
      {
        "id": "6-wsqwf8",
        "geohash": "wsqwf8",
        "precision": 6,
        "count": 1,
        "totalStudents": 792,
        "latitude": 25.098088,
        "longitude": 121.754001,
        "bounds": {
          "minLatitude": 25.098088,
          "maxLatitude": 25.098088,
          "minLongitude": 121.754001,
          "maxLongitude": 121.754001
        },
        "topSchools": [
          {
            "id": "173637",
            "name": "市立碇內國小",
            "townshipName": "暖暖區",
            "students": 792,
            "status": "正常"
          }
        ]
      },
      {
        "id": "6-wsqwf0",
        "geohash": "wsqwf0",
        "precision": 6,
        "count": 1,
        "totalStudents": 439,
        "latitude": 25.093718,
        "longitude": 121.735003,
        "bounds": {
          "minLatitude": 25.093718,
          "maxLatitude": 25.093718,
          "minLongitude": 121.735003,
          "maxLongitude": 121.735003
        },
        "topSchools": [
          {
            "id": "173642",
            "name": "市立暖西國小",
            "townshipName": "暖暖區",
            "students": 439,
            "status": "正常"
          }
        ]
      },
      {
        "id": "6-wsqwf2",
        "geohash": "wsqwf2",
        "precision": 6,
        "count": 1,
        "totalStudents": 410,
        "latitude": 25.095756,
        "longitude": 121.749369,
        "bounds": {
          "minLatitude": 25.095756,
          "maxLatitude": 25.095756,
          "minLongitude": 121.749369,
          "maxLongitude": 121.749369
        },
        "topSchools": [
          {
            "id": "173515",
            "name": "市立碇內國中",
            "townshipName": "暖暖區",
            "students": 410,
            "status": "正常"
          }
        ]
      },
      {
        "id": "6-wsqwf1",
        "geohash": "wsqwf1",
        "precision": 6,
        "count": 1,
        "totalStudents": 169,
        "latitude": 25.100846,
        "longitude": 121.737498,
        "bounds": {
          "minLatitude": 25.100846,
          "maxLatitude": 25.100846,
          "minLongitude": 121.737498,
          "maxLongitude": 121.737498
        },
        "topSchools": [
          {
            "id": "173635",
            "name": "市立暖暖國小",
            "townshipName": "暖暖區",
            "students": 169,
            "status": "正常"
          }
        ]
      }
    ],
    "7": [
      {
        "id": "7-wsqwc8r",
        "geohash": "wsqwc8r",
        "precision": 7,
        "count": 1,
        "totalStudents": 1187,
        "latitude": 25.094226,
        "longitude": 121.717202,
        "bounds": {
          "minLatitude": 25.094226,
          "maxLatitude": 25.094226,
          "minLongitude": 121.717202,
          "maxLongitude": 121.717202
        },
        "topSchools": [
          {
            "id": "170404",
            "name": "國立基隆商工",
            "townshipName": "七堵區",
            "students": 1187,
            "status": "正常"
          }
        ]
      },
      {
        "id": "7-wsqwc8v",
        "geohash": "wsqwc8v",
        "precision": 7,
        "count": 1,
        "totalStudents": 909,
        "latitude": 25.098083,
        "longitude": 121.713966,
        "bounds": {
          "minLatitude": 25.098083,
          "maxLatitude": 25.098083,
          "minLongitude": 121.713966,
          "maxLongitude": 121.713966
        },
        "topSchools": [
          {
            "id": "173626",
            "name": "市立七堵國小",
            "townshipName": "七堵區",
            "students": 909,
            "status": "正常"
          }
        ]
      },
      {
        "id": "7-wsqw9jx",
        "geohash": "wsqw9jx",
        "precision": 7,
        "count": 1,
        "totalStudents": 820,
        "latitude": 25.079712,
        "longitude": 121.69459,
        "bounds": {
          "minLatitude": 25.079712,
          "maxLatitude": 25.079712,
          "minLongitude": 121.69459,
          "maxLongitude": 121.69459
        },
        "topSchools": [
          {
            "id": "173628",
            "name": "市立五堵國小",
            "townshipName": "七堵區",
            "students": 820,
            "status": "正常"
          }
        ]
      },
      {
        "id": "7-wsqwc8p",
        "geohash": "wsqwc8p",
        "precision": 7,
        "count": 1,
        "totalStudents": 510,
        "latitude": 25.094076,
        "longitude": 121.716232,
        "bounds": {
          "minLatitude": 25.094076,
          "maxLatitude": 25.094076,
          "minLongitude": 121.716232,
          "maxLongitude": 121.716232
        },
        "topSchools": [
          {
            "id": "173501",
            "name": "市立明德國中",
            "townshipName": "七堵區",
            "students": 510,
            "status": "正常"
          }
        ]
      },
      {
        "id": "7-wsqw9q6",
        "geohash": "wsqw9q6",
        "precision": 7,
        "count": 1,
        "totalStudents": 421,
        "latitude": 25.083608,
        "longitude": 121.698381,
        "bounds": {
          "minLatitude": 25.083608,
          "maxLatitude": 25.083608,
          "minLongitude": 121.698381,
          "maxLongitude": 121.698381
        },
        "topSchools": [
          {
            "id": "173513",
            "name": "市立百福國中",
            "townshipName": "七堵區",
            "students": 421,
            "status": "正常"
          }
        ]
      },
      {
        "id": "7-wsqw9xv",
        "geohash": "wsqw9xv",
        "precision": 7,
        "count": 1,
        "totalStudents": 208,
        "latitude": 25.091661,
        "longitude": 121.71354,
        "bounds": {
          "minLatitude": 25.091661,
          "maxLatitude": 25.091661,
          "minLongitude": 121.71354,
          "maxLongitude": 121.71354
        },
        "topSchools": [
          {
            "id": "173639",
            "name": "市立長興國小",
            "townshipName": "七堵區",
            "students": 208,
            "status": "正常"
          }
        ]
      },
      {
        "id": "7-wsqw9nm",
        "geohash": "wsqw9nm",
        "precision": 7,
        "count": 1,
        "totalStudents": 150,
        "latitude": 25.083402,
        "longitude": 121.69223,
        "bounds": {
          "minLatitude": 25.083402,
          "maxLatitude": 25.083402,
          "minLongitude": 121.69223,
          "maxLongitude": 121.69223
        },
        "topSchools": [
          {
            "id": "173629",
            "name": "市立堵南國小",
            "townshipName": "七堵區",
            "students": 150,
            "status": "正常"
          }
        ]
      },
      {
        "id": "7-wsqw9x1",
        "geohash": "wsqw9x1",
        "precision": 7,
        "count": 1,
        "totalStudents": 141,
        "latitude": 25.087699,
        "longitude": 121.708283,
        "bounds": {
          "minLatitude": 25.087699,
          "maxLatitude": 25.087699,
          "minLongitude": 121.708283,
          "maxLongitude": 121.708283
        },
        "topSchools": [
          {
            "id": "173627",
            "name": "市立華興國小",
            "townshipName": "七堵區",
            "students": 141,
            "status": "正常"
          }
        ]
      },
      {
        "id": "7-wsqwcgr",
        "geohash": "wsqwcgr",
        "precision": 7,
        "count": 1,
        "totalStudents": 128,
        "latitude": 25.111552,
        "longitude": 121.727787,
        "bounds": {
          "minLatitude": 25.111552,
          "maxLatitude": 25.111552,
          "minLongitude": 121.727787,
          "maxLongitude": 121.727787
        },
        "topSchools": [
          {
            "id": "173632",
            "name": "市立尚仁國小",
            "townshipName": "七堵區",
            "students": 128,
            "status": "正常"
          }
        ]
      },
      {
        "id": "7-wsqwc55",
        "geohash": "wsqwc55",
        "precision": 7,
        "count": 1,
        "totalStudents": 92,
        "latitude": 25.110146,
        "longitude": 121.689486,
        "bounds": {
          "minLatitude": 25.110146,
          "maxLatitude": 25.110146,
          "minLongitude": 121.689486,
          "maxLongitude": 121.689486
        },
        "topSchools": [
          {
            "id": "173630",
            "name": "市立瑪陵國小",
            "townshipName": "七堵區",
            "students": 92,
            "status": "正常"
          }
        ]
      },
      {
        "id": "7-wsqwbd9",
        "geohash": "wsqwbd9",
        "precision": 7,
        "count": 1,
        "totalStudents": 48,
        "latitude": 25.107454,
        "longitude": 121.665233,
        "bounds": {
          "minLatitude": 25.107454,
          "maxLatitude": 25.107454,
          "minLongitude": 121.665233,
          "maxLongitude": 121.665233
        },
        "topSchools": [
          {
            "id": "173631",
            "name": "市立復興國小",
            "townshipName": "七堵區",
            "students": 48,
            "status": "正常"
          }
        ]
      },
      {
        "id": "7-wsqx448",
        "geohash": "wsqx448",
        "precision": 7,
        "count": 1,
        "totalStudents": 3167,
        "latitude": 25.150462,
        "longitude": 121.72915,
        "bounds": {
          "minLatitude": 25.150462,
          "maxLatitude": 25.150462,
          "minLongitude": 121.72915,
          "maxLongitude": 121.72915
        },
        "topSchools": [
          {
            "id": "1185",
            "name": "德育護理健康學院",
            "townshipName": "中山區",
            "students": 3167,
            "status": "正常"
          }
        ]
      },
      {
        "id": "7-wsqwfpg",
        "geohash": "wsqwfpg",
        "precision": 7,
        "count": 1,
        "totalStudents": 1137,
        "latitude": 25.136639,
        "longitude": 121.733837,
        "bounds": {
          "minLatitude": 25.136639,
          "maxLatitude": 25.136639,
          "minLongitude": 121.733837,
          "maxLongitude": 121.733837
        },
        "topSchools": [
          {
            "id": "171308",
            "name": "輔大聖心高中",
            "townshipName": "中山區",
            "students": 1137,
            "status": "正常"
          }
        ]
      },
      {
        "id": "7-wsqx451",
        "geohash": "wsqx451",
        "precision": 7,
        "count": 1,
        "totalStudents": 585,
        "latitude": 25.153938,
        "longitude": 121.730834,
        "bounds": {
          "minLatitude": 25.153938,
          "maxLatitude": 25.153938,
          "minLongitude": 121.730834,
          "maxLongitude": 121.730834
        },
        "topSchools": [
          {
            "id": "173304",
            "name": "市立中山高中",
            "townshipName": "中山區",
            "students": 585,
            "status": "正常"
          }
        ]
      },
      {
        "id": "7-wsqx1cc",
        "geohash": "wsqx1cc",
        "precision": 7,
        "count": 1,
        "totalStudents": 398,
        "latitude": 25.146727,
        "longitude": 121.720046,
        "bounds": {
          "minLatitude": 25.146727,
          "maxLatitude": 25.146727,
          "minLongitude": 121.720046,
          "maxLongitude": 121.720046
        },
        "topSchools": [
          {
            "id": "173619",
            "name": "市立中和國小",
            "townshipName": "中山區",
            "students": 398,
            "status": "正常"
          }
        ]
      },
      {
        "id": "7-wsqx453",
        "geohash": "wsqx453",
        "precision": 7,
        "count": 1,
        "totalStudents": 327,
        "latitude": 25.155279,
        "longitude": 121.730914,
        "bounds": {
          "minLatitude": 25.155279,
          "maxLatitude": 25.155279,
          "minLongitude": 121.730914,
          "maxLongitude": 121.730914
        },
        "topSchools": [
          {
            "id": "173625",
            "name": "市立德和國小",
            "townshipName": "中山區",
            "students": 327,
            "status": "正常"
          }
        ]
      },
      {
        "id": "7-wsqx41v",
        "geohash": "wsqx41v",
        "precision": 7,
        "count": 1,
        "totalStudents": 118,
        "latitude": 25.146566,
        "longitude": 121.735923,
        "bounds": {
          "minLatitude": 25.146566,
          "maxLatitude": 25.146566,
          "minLongitude": 121.735923,
          "maxLongitude": 121.735923
        },
        "topSchools": [
          {
            "id": "173621",
            "name": "市立中山國小",
            "townshipName": "中山區",
            "students": 118,
            "status": "正常"
          }
        ]
      },
      {
        "id": "7-wsqx44r",
        "geohash": "wsqx44r",
        "precision": 7,
        "count": 1,
        "totalStudents": 116,
        "latitude": 25.149373,
        "longitude": 121.738949,
        "bounds": {
          "minLatitude": 25.149373,
          "maxLatitude": 25.149373,
          "minLongitude": 121.738949,
          "maxLongitude": 121.738949
        },
        "topSchools": [
          {
            "id": "173623",
            "name": "市立中華國小",
            "townshipName": "中山區",
            "students": 116,
            "status": "正常"
          }
        ]
      },
      {
        "id": "7-wsqx43v",
        "geohash": "wsqx43v",
        "precision": 7,
        "count": 1,
        "totalStudents": 88,
        "latitude": 25.147347,
        "longitude": 121.746704,
        "bounds": {
          "minLatitude": 25.147347,
          "maxLatitude": 25.147347,
          "minLongitude": 121.746704,
          "maxLongitude": 121.746704
        },
        "topSchools": [
          {
            "id": "173620",
            "name": "市立仙洞國小",
            "townshipName": "中山區",
            "students": 88,
            "status": "正常"
          }
        ]
      },
      {
        "id": "7-wsqwfrb",
        "geohash": "wsqwfrb",
        "precision": 7,
        "count": 1,
        "totalStudents": 68,
        "latitude": 25.136585,
        "longitude": 121.73952,
        "bounds": {
          "minLatitude": 25.136585,
          "maxLatitude": 25.136585,
          "minLongitude": 121.73952,
          "maxLongitude": 121.73952
        },
        "topSchools": [
          {
            "id": "173622",
            "name": "市立港西國小",
            "townshipName": "中山區",
            "students": 68,
            "status": "正常"
          }
        ]
      },
      {
        "id": "7-wsqx548",
        "geohash": "wsqx548",
        "precision": 7,
        "count": 1,
        "totalStudents": 9102,
        "latitude": 25.150852,
        "longitude": 121.772607,
        "bounds": {
          "minLatitude": 25.150852,
          "maxLatitude": 25.150852,
          "minLongitude": 121.772607,
          "maxLongitude": 121.772607
        },
        "topSchools": [
          {
            "id": "0012",
            "name": "國立臺灣海洋大學",
            "townshipName": "中正區",
            "students": 9102,
            "status": "正常"
          }
        ]
      },
      {
        "id": "7-wsqx4cq",
        "geohash": "wsqx4cq",
        "precision": 7,
        "count": 1,
        "totalStudents": 2947,
        "latitude": 25.144111,
        "longitude": 121.770937,
        "bounds": {
          "minLatitude": 25.144111,
          "maxLatitude": 25.144111,
          "minLongitude": 121.770937,
          "maxLongitude": 121.770937
        },
        "topSchools": [
          {
            "id": "171306",
            "name": "私立二信高中",
            "townshipName": "中正區",
            "students": 2947,
            "status": "正常"
          }
        ]
      },
      {
        "id": "7-wsqx4cz",
        "geohash": "wsqx4cz",
        "precision": 7,
        "count": 1,
        "totalStudents": 998,
        "latitude": 25.147332,
        "longitude": 121.771125,
        "bounds": {
          "minLatitude": 25.147332,
          "maxLatitude": 25.147332,
          "minLongitude": 121.771125,
          "maxLongitude": 121.771125
        },
        "topSchools": [
          {
            "id": "170403",
            "name": "國立海洋大學附屬基隆海事",
            "townshipName": "中正區",
            "students": 998,
            "status": "正常"
          }
        ]
      },
      {
        "id": "7-wsqx584",
        "geohash": "wsqx584",
        "precision": 7,
        "count": 1,
        "totalStudents": 517,
        "latitude": 25.138007,
        "longitude": 121.797311,
        "bounds": {
          "minLatitude": 25.138007,
          "maxLatitude": 25.138007,
          "minLongitude": 121.797311,
          "maxLongitude": 121.797311
        },
        "topSchools": [
          {
            "id": "173605",
            "name": "市立八斗國小",
            "townshipName": "中正區",
            "students": 517,
            "status": "正常"
          }
        ]
      },
      {
        "id": "7-wsqwfxc",
        "geohash": "wsqwfxc",
        "precision": 7,
        "count": 1,
        "totalStudents": 445,
        "latitude": 25.13549,
        "longitude": 121.75299,
        "bounds": {
          "minLatitude": 25.13549,
          "maxLatitude": 25.13549,
          "minLongitude": 121.75299,
          "maxLongitude": 121.75299
        },
        "topSchools": [
          {
            "id": "173505",
            "name": "市立中正國中",
            "townshipName": "中正區",
            "students": 445,
            "status": "正常"
          }
        ]
      },
      {
        "id": "7-wsqx52e",
        "geohash": "wsqx52e",
        "precision": 7,
        "count": 1,
        "totalStudents": 444,
        "latitude": 25.140501,
        "longitude": 121.7881,
        "bounds": {
          "minLatitude": 25.140501,
          "maxLatitude": 25.140501,
          "minLongitude": 121.7881,
          "maxLongitude": 121.7881
        },
        "topSchools": [
          {
            "id": "173314",
            "name": "市立八斗高中",
            "townshipName": "中正區",
            "students": 444,
            "status": "正常"
          }
        ]
      },
      {
        "id": "7-wsqx4cy",
        "geohash": "wsqx4cy",
        "precision": 7,
        "count": 1,
        "totalStudents": 383,
        "latitude": 25.146646,
        "longitude": 121.771044,
        "bounds": {
          "minLatitude": 25.146646,
          "maxLatitude": 25.146646,
          "minLongitude": 121.771044,
          "maxLongitude": 121.771044
        },
        "topSchools": [
          {
            "id": "173602",
            "name": "市立正濱國小",
            "townshipName": "中正區",
            "students": 383,
            "status": "正常"
          }
        ]
      },
      {
        "id": "7-wsqx4cc",
        "geohash": "wsqx4cc",
        "precision": 7,
        "count": 1,
        "totalStudents": 98,
        "latitude": 25.146969,
        "longitude": 121.763278,
        "bounds": {
          "minLatitude": 25.146969,
          "maxLatitude": 25.146969,
          "minLongitude": 121.763278,
          "maxLongitude": 121.763278
        },
        "topSchools": [
          {
            "id": "173510",
            "name": "市立正濱國中",
            "townshipName": "中正區",
            "students": 98,
            "status": "正常"
          }
        ]
      },
      {
        "id": "7-wsqwfrz",
        "geohash": "wsqwfrz",
        "precision": 7,
        "count": 1,
        "totalStudents": 85,
        "latitude": 25.135824,
        "longitude": 121.750449,
        "bounds": {
          "minLatitude": 25.135824,
          "maxLatitude": 25.135824,
          "minLongitude": 121.750449,
          "maxLongitude": 121.750449
        },
        "topSchools": [
          {
            "id": "173601",
            "name": "市立中正國小",
            "townshipName": "中正區",
            "students": 85,
            "status": "正常"
          }
        ]
      },
      {
        "id": "7-wsqx4g7",
        "geohash": "wsqx4g7",
        "precision": 7,
        "count": 1,
        "totalStudents": 69,
        "latitude": 25.155681,
        "longitude": 121.766072,
        "bounds": {
          "minLatitude": 25.155681,
          "maxLatitude": 25.155681,
          "minLongitude": 121.766072,
          "maxLongitude": 121.766072
        },
        "topSchools": [
          {
            "id": "173604",
            "name": "市立和平國小",
            "townshipName": "中正區",
            "students": 69,
            "status": "正常"
          }
        ]
      },
      {
        "id": "7-wsqx4f5",
        "geohash": "wsqx4f5",
        "precision": 7,
        "count": 1,
        "totalStudents": 50,
        "latitude": 25.148996,
        "longitude": 121.76676,
        "bounds": {
          "minLatitude": 25.148996,
          "maxLatitude": 25.148996,
          "minLongitude": 121.76676,
          "maxLongitude": 121.76676
        },
        "topSchools": [
          {
            "id": "173603",
            "name": "市立忠孝國小",
            "townshipName": "中正區",
            "students": 50,
            "status": "正常"
          }
        ]
      },
      {
        "id": "7-wsqwft8",
        "geohash": "wsqwft8",
        "precision": 7,
        "count": 1,
        "totalStudents": 1124,
        "latitude": 25.123519,
        "longitude": 121.750672,
        "bounds": {
          "minLatitude": 25.123519,
          "maxLatitude": 25.123519,
          "minLongitude": 121.750672,
          "maxLongitude": 121.750672
        },
        "topSchools": [
          {
            "id": "173502",
            "name": "市立銘傳國中",
            "townshipName": "仁愛區",
            "students": 1124,
            "status": "正常"
          }
        ]
      },
      {
        "id": "7-wsqwfqm",
        "geohash": "wsqwfqm",
        "precision": 7,
        "count": 1,
        "totalStudents": 1112,
        "latitude": 25.127312,
        "longitude": 121.746891,
        "bounds": {
          "minLatitude": 25.127312,
          "maxLatitude": 25.127312,
          "minLongitude": 121.746891,
          "maxLongitude": 121.746891
        },
        "topSchools": [
          {
            "id": "173612",
            "name": "市立信義國小",
            "townshipName": "仁愛區",
            "students": 1112,
            "status": "正常"
          }
        ]
      },
      {
        "id": "7-wsqwfqk",
        "geohash": "wsqwfqk",
        "precision": 7,
        "count": 1,
        "totalStudents": 681,
        "latitude": 25.127679,
        "longitude": 121.745922,
        "bounds": {
          "minLatitude": 25.127679,
          "maxLatitude": 25.127679,
          "minLongitude": 121.745922,
          "maxLongitude": 121.745922
        },
        "topSchools": [
          {
            "id": "173611",
            "name": "市立仁愛國小",
            "townshipName": "仁愛區",
            "students": 681,
            "status": "正常"
          }
        ]
      },
      {
        "id": "7-wsqwfnp",
        "geohash": "wsqwfnp",
        "precision": 7,
        "count": 1,
        "totalStudents": 344,
        "latitude": 25.126034,
        "longitude": 121.738598,
        "bounds": {
          "minLatitude": 25.126034,
          "maxLatitude": 25.126034,
          "minLongitude": 121.738598,
          "maxLongitude": 121.738598
        },
        "topSchools": [
          {
            "id": "173613",
            "name": "市立成功國小",
            "townshipName": "仁愛區",
            "students": 344,
            "status": "正常"
          }
        ]
      },
      {
        "id": "7-wsqwfkg",
        "geohash": "wsqwfkg",
        "precision": 7,
        "count": 1,
        "totalStudents": 125,
        "latitude": 25.118925,
        "longitude": 121.744389,
        "bounds": {
          "minLatitude": 25.118925,
          "maxLatitude": 25.118925,
          "minLongitude": 121.744389,
          "maxLongitude": 121.744389
        },
        "topSchools": [
          {
            "id": "173614",
            "name": "市立南榮國小",
            "townshipName": "仁愛區",
            "students": 125,
            "status": "正常"
          }
        ]
      },
      {
        "id": "7-wsqwfku",
        "geohash": "wsqwfku",
        "precision": 7,
        "count": 1,
        "totalStudents": 118,
        "latitude": 25.120148,
        "longitude": 121.746291,
        "bounds": {
          "minLatitude": 25.120148,
          "maxLatitude": 25.120148,
          "minLongitude": 121.746291,
          "maxLongitude": 121.746291
        },
        "topSchools": [
          {
            "id": "173508",
            "name": "市立南榮國中",
            "townshipName": "仁愛區",
            "students": 118,
            "status": "正常"
          }
        ]
      },
      {
        "id": "7-wsqx182",
        "geohash": "wsqx182",
        "precision": 7,
        "count": 1,
        "totalStudents": 1103,
        "latitude": 25.138769,
        "longitude": 121.706889,
        "bounds": {
          "minLatitude": 25.138769,
          "maxLatitude": 25.138769,
          "minLongitude": 121.706889,
          "maxLongitude": 121.706889
        },
        "topSchools": [
          {
            "id": "173618",
            "name": "市立武崙國小",
            "townshipName": "安樂區",
            "students": 1103,
            "status": "正常"
          }
        ]
      },
      {
        "id": "7-wsqwcvf",
        "geohash": "wsqwcvf",
        "precision": 7,
        "count": 1,
        "totalStudents": 1102,
        "latitude": 25.124963,
        "longitude": 121.721097,
        "bounds": {
          "minLatitude": 25.124963,
          "maxLatitude": 25.124963,
          "minLongitude": 121.721097,
          "maxLongitude": 121.721097
        },
        "topSchools": [
          {
            "id": "173633",
            "name": "市立建德國小",
            "townshipName": "安樂區",
            "students": 1102,
            "status": "正常"
          }
        ]
      },
      {
        "id": "7-wsqwfpc",
        "geohash": "wsqwfpc",
        "precision": 7,
        "count": 1,
        "totalStudents": 821,
        "latitude": 25.13561,
        "longitude": 121.729935,
        "bounds": {
          "minLatitude": 25.13561,
          "maxLatitude": 25.13561,
          "minLongitude": 121.729935,
          "maxLongitude": 121.729935
        },
        "topSchools": [
          {
            "id": "173306",
            "name": "市立安樂高中",
            "townshipName": "安樂區",
            "students": 821,
            "status": "正常"
          }
        ]
      },
      {
        "id": "7-wsqx12p",
        "geohash": "wsqx12p",
        "precision": 7,
        "count": 1,
        "totalStudents": 683,
        "latitude": 25.137528,
        "longitude": 121.706447,
        "bounds": {
          "minLatitude": 25.137528,
          "maxLatitude": 25.137528,
          "minLongitude": 121.706447,
          "maxLongitude": 121.706447
        },
        "topSchools": [
          {
            "id": "173516",
            "name": "市立武崙國中",
            "townshipName": "安樂區",
            "students": 683,
            "status": "正常"
          }
        ]
      },
      {
        "id": "7-wsqwcy6",
        "geohash": "wsqwcy6",
        "precision": 7,
        "count": 1,
        "totalStudents": 646,
        "latitude": 25.127317,
        "longitude": 121.721501,
        "bounds": {
          "minLatitude": 25.127317,
          "maxLatitude": 25.127317,
          "minLongitude": 121.721501,
          "maxLongitude": 121.721501
        },
        "topSchools": [
          {
            "id": "173512",
            "name": "市立建德國中",
            "townshipName": "安樂區",
            "students": 646,
            "status": "正常"
          }
        ]
      },
      {
        "id": "7-wsqwfp1",
        "geohash": "wsqwfp1",
        "precision": 7,
        "count": 1,
        "totalStudents": 396,
        "latitude": 25.131691,
        "longitude": 121.730984,
        "bounds": {
          "minLatitude": 25.131691,
          "maxLatitude": 25.131691,
          "minLongitude": 121.730984,
          "maxLongitude": 121.730984
        },
        "topSchools": [
          {
            "id": "173616",
            "name": "市立安樂國小",
            "townshipName": "安樂區",
            "students": 396,
            "status": "正常"
          }
        ]
      },
      {
        "id": "7-wsqwcw5",
        "geohash": "wsqwcw5",
        "precision": 7,
        "count": 1,
        "totalStudents": 343,
        "latitude": 25.125743,
        "longitude": 121.711066,
        "bounds": {
          "minLatitude": 25.125743,
          "maxLatitude": 25.125743,
          "minLongitude": 121.711066,
          "maxLongitude": 121.711066
        },
        "topSchools": [
          {
            "id": "173640",
            "name": "市立長樂國小",
            "townshipName": "安樂區",
            "students": 343,
            "status": "正常"
          }
        ]
      },
      {
        "id": "7-wsqx404",
        "geohash": "wsqx404",
        "precision": 7,
        "count": 1,
        "totalStudents": 245,
        "latitude": 25.136914,
        "longitude": 121.731304,
        "bounds": {
          "minLatitude": 25.136914,
          "maxLatitude": 25.136914,
          "minLongitude": 121.731304,
          "maxLongitude": 121.731304
        },
        "topSchools": [
          {
            "id": "173617",
            "name": "市立西定國小",
            "townshipName": "安樂區",
            "students": 245,
            "status": "正常"
          }
        ]
      },
      {
        "id": "7-wsqx15w",
        "geohash": "wsqx15w",
        "precision": 7,
        "count": 1,
        "totalStudents": 143,
        "latitude": 25.15604,
        "longitude": 121.694076,
        "bounds": {
          "minLatitude": 25.15604,
          "maxLatitude": 25.15604,
          "minLongitude": 121.694076,
          "maxLongitude": 121.694076
        },
        "topSchools": [
          {
            "id": "173638",
            "name": "市立隆聖國小",
            "townshipName": "安樂區",
            "students": 143,
            "status": "正常"
          }
        ]
      },
      {
        "id": "7-wsqwfx4",
        "geohash": "wsqwfx4",
        "precision": 7,
        "count": 1,
        "totalStudents": 1114,
        "latitude": 25.131712,
        "longitude": 121.753747,
        "bounds": {
          "minLatitude": 25.131712,
          "maxLatitude": 25.131712,
          "minLongitude": 121.753747,
          "maxLongitude": 121.753747
        },
        "topSchools": [
          {
            "id": "1082",
            "name": "崇右影藝科技大學",
            "townshipName": "信義區",
            "students": 1114,
            "status": "正常"
          }
        ]
      },
      {
        "id": "7-wsqx505",
        "geohash": "wsqx505",
        "precision": 7,
        "count": 1,
        "totalStudents": 936,
        "latitude": 25.137591,
        "longitude": 121.777321,
        "bounds": {
          "minLatitude": 25.137591,
          "maxLatitude": 25.137591,
          "minLongitude": 121.777321,
          "maxLongitude": 121.777321
        },
        "topSchools": [
          {
            "id": "173641",
            "name": "市立深美國小",
            "townshipName": "信義區",
            "students": 936,
            "status": "正常"
          }
        ]
      },
      {
        "id": "7-wsqwfww",
        "geohash": "wsqwfww",
        "precision": 7,
        "count": 1,
        "totalStudents": 738,
        "latitude": 25.129341,
        "longitude": 121.759479,
        "bounds": {
          "minLatitude": 25.129341,
          "maxLatitude": 25.129341,
          "minLongitude": 121.759479,
          "maxLongitude": 121.759479
        },
        "topSchools": [
          {
            "id": "170301",
            "name": "國立基隆女中",
            "townshipName": "信義區",
            "students": 738,
            "status": "正常"
          }
        ]
      },
      {
        "id": "7-wsqwfxh",
        "geohash": "wsqwfxh",
        "precision": 7,
        "count": 1,
        "totalStudents": 514,
        "latitude": 25.131244,
        "longitude": 121.757119,
        "bounds": {
          "minLatitude": 25.131244,
          "maxLatitude": 25.131244,
          "minLongitude": 121.757119,
          "maxLongitude": 121.757119
        },
        "topSchools": [
          {
            "id": "173607",
            "name": "市立中興國小",
            "townshipName": "信義區",
            "students": 514,
            "status": "正常"
          }
        ]
      },
      {
        "id": "7-wsqwfxp",
        "geohash": "wsqwfxp",
        "precision": 7,
        "count": 1,
        "totalStudents": 357,
        "latitude": 25.132135,
        "longitude": 121.760562,
        "bounds": {
          "minLatitude": 25.132135,
          "maxLatitude": 25.132135,
          "minLongitude": 121.760562,
          "maxLongitude": 121.760562
        },
        "topSchools": [
          {
            "id": "173606",
            "name": "市立東信國小",
            "townshipName": "信義區",
            "students": 357,
            "status": "正常"
          }
        ]
      },
      {
        "id": "7-wsqwgq8",
        "geohash": "wsqwgq8",
        "precision": 7,
        "count": 1,
        "totalStudents": 357,
        "latitude": 25.128819,
        "longitude": 121.783696,
        "bounds": {
          "minLatitude": 25.128819,
          "maxLatitude": 25.128819,
          "minLongitude": 121.783696,
          "maxLongitude": 121.783696
        },
        "topSchools": [
          {
            "id": "173608",
            "name": "市立深澳國小",
            "townshipName": "信義區",
            "students": 357,
            "status": "正常"
          }
        ]
      },
      {
        "id": "7-wsqwfx0",
        "geohash": "wsqwfx0",
        "precision": 7,
        "count": 1,
        "totalStudents": 285,
        "latitude": 25.132579,
        "longitude": 121.751756,
        "bounds": {
          "minLatitude": 25.132579,
          "maxLatitude": 25.132579,
          "minLongitude": 121.751756,
          "maxLongitude": 121.751756
        },
        "topSchools": [
          {
            "id": "173509",
            "name": "市立成功國中",
            "townshipName": "信義區",
            "students": 285,
            "status": "正常"
          }
        ]
      },
      {
        "id": "7-wsqwfyt",
        "geohash": "wsqwfyt",
        "precision": 7,
        "count": 1,
        "totalStudents": 202,
        "latitude": 25.129567,
        "longitude": 121.76849,
        "bounds": {
          "minLatitude": 25.129567,
          "maxLatitude": 25.129567,
          "minLongitude": 121.76849,
          "maxLongitude": 121.76849
        },
        "topSchools": [
          {
            "id": "173503",
            "name": "市立信義國中",
            "townshipName": "信義區",
            "students": 202,
            "status": "正常"
          }
        ]
      },
      {
        "id": "7-wsqwfqz",
        "geohash": "wsqwfqz",
        "precision": 7,
        "count": 1,
        "totalStudents": 130,
        "latitude": 25.130219,
        "longitude": 121.749524,
        "bounds": {
          "minLatitude": 25.130219,
          "maxLatitude": 25.130219,
          "minLongitude": 121.749524,
          "maxLongitude": 121.749524
        },
        "topSchools": [
          {
            "id": "171405",
            "name": "私立光隆家商",
            "townshipName": "信義區",
            "students": 130,
            "status": "正常"
          }
        ]
      },
      {
        "id": "7-wsqwfy9",
        "geohash": "wsqwfy9",
        "precision": 7,
        "count": 1,
        "totalStudents": 77,
        "latitude": 25.129077,
        "longitude": 121.763166,
        "bounds": {
          "minLatitude": 25.129077,
          "maxLatitude": 25.129077,
          "minLongitude": 121.763166,
          "maxLongitude": 121.763166
        },
        "topSchools": [
          {
            "id": "173610",
            "name": "市立東光國小",
            "townshipName": "信義區",
            "students": 77,
            "status": "正常"
          }
        ]
      },
      {
        "id": "7-wsqwfyy",
        "geohash": "wsqwfyy",
        "precision": 7,
        "count": 1,
        "totalStudents": 73,
        "latitude": 25.130893,
        "longitude": 121.770523,
        "bounds": {
          "minLatitude": 25.130893,
          "maxLatitude": 25.130893,
          "minLongitude": 121.770523,
          "maxLongitude": 121.770523
        },
        "topSchools": [
          {
            "id": "171407",
            "name": "私立培德工家",
            "townshipName": "信義區",
            "students": 73,
            "status": "正常"
          }
        ]
      },
      {
        "id": "7-wsqwf8f",
        "geohash": "wsqwf8f",
        "precision": 7,
        "count": 1,
        "totalStudents": 792,
        "latitude": 25.098088,
        "longitude": 121.754001,
        "bounds": {
          "minLatitude": 25.098088,
          "maxLatitude": 25.098088,
          "minLongitude": 121.754001,
          "maxLongitude": 121.754001
        },
        "topSchools": [
          {
            "id": "173637",
            "name": "市立碇內國小",
            "townshipName": "暖暖區",
            "students": 792,
            "status": "正常"
          }
        ]
      },
      {
        "id": "7-wsqwf4d",
        "geohash": "wsqwf4d",
        "precision": 7,
        "count": 1,
        "totalStudents": 681,
        "latitude": 25.107411,
        "longitude": 121.732555,
        "bounds": {
          "minLatitude": 25.107411,
          "maxLatitude": 25.107411,
          "minLongitude": 121.732555,
          "maxLongitude": 121.732555
        },
        "topSchools": [
          {
            "id": "170302",
            "name": "國立基隆高中",
            "townshipName": "暖暖區",
            "students": 681,
            "status": "正常"
          }
        ]
      },
      {
        "id": "7-wsqwf4x",
        "geohash": "wsqwf4x",
        "precision": 7,
        "count": 1,
        "totalStudents": 452,
        "latitude": 25.107646,
        "longitude": 121.738573,
        "bounds": {
          "minLatitude": 25.107646,
          "maxLatitude": 25.107646,
          "minLongitude": 121.738573,
          "maxLongitude": 121.738573
        },
        "topSchools": [
          {
            "id": "173307",
            "name": "市立暖暖高中",
            "townshipName": "暖暖區",
            "students": 452,
            "status": "正常"
          }
        ]
      },
      {
        "id": "7-wsqwf0h",
        "geohash": "wsqwf0h",
        "precision": 7,
        "count": 1,
        "totalStudents": 439,
        "latitude": 25.093718,
        "longitude": 121.735003,
        "bounds": {
          "minLatitude": 25.093718,
          "maxLatitude": 25.093718,
          "minLongitude": 121.735003,
          "maxLongitude": 121.735003
        },
        "topSchools": [
          {
            "id": "173642",
            "name": "市立暖西國小",
            "townshipName": "暖暖區",
            "students": 439,
            "status": "正常"
          }
        ]
      },
      {
        "id": "7-wsqwf2x",
        "geohash": "wsqwf2x",
        "precision": 7,
        "count": 1,
        "totalStudents": 410,
        "latitude": 25.095756,
        "longitude": 121.749369,
        "bounds": {
          "minLatitude": 25.095756,
          "maxLatitude": 25.095756,
          "minLongitude": 121.749369,
          "maxLongitude": 121.749369
        },
        "topSchools": [
          {
            "id": "173515",
            "name": "市立碇內國中",
            "townshipName": "暖暖區",
            "students": 410,
            "status": "正常"
          }
        ]
      },
      {
        "id": "7-wsqwf1q",
        "geohash": "wsqwf1q",
        "precision": 7,
        "count": 1,
        "totalStudents": 169,
        "latitude": 25.100846,
        "longitude": 121.737498,
        "bounds": {
          "minLatitude": 25.100846,
          "maxLatitude": 25.100846,
          "minLongitude": 121.737498,
          "maxLongitude": 121.737498
        },
        "topSchools": [
          {
            "id": "173635",
            "name": "市立暖暖國小",
            "townshipName": "暖暖區",
            "students": 169,
            "status": "正常"
          }
        ]
      },
      {
        "id": "7-wsqwf4q",
        "geohash": "wsqwf4q",
        "precision": 7,
        "count": 1,
        "totalStudents": 152,
        "latitude": 25.105673,
        "longitude": 121.737926,
        "bounds": {
          "minLatitude": 25.105673,
          "maxLatitude": 25.105673,
          "minLongitude": 121.737926,
          "maxLongitude": 121.737926
        },
        "topSchools": [
          {
            "id": "173636",
            "name": "市立暖江國小",
            "townshipName": "暖暖區",
            "students": 152,
            "status": "正常"
          }
        ]
      },
      {
        "id": "7-wsqwf4g",
        "geohash": "wsqwf4g",
        "precision": 7,
        "count": 1,
        "totalStudents": 99,
        "latitude": 25.108565,
        "longitude": 121.732828,
        "bounds": {
          "minLatitude": 25.108565,
          "maxLatitude": 25.108565,
          "minLongitude": 121.732828,
          "maxLongitude": 121.732828
        },
        "topSchools": [
          {
            "id": "173634",
            "name": "市立八堵國小",
            "townshipName": "暖暖區",
            "students": 99,
            "status": "正常"
          }
        ]
      }
    ]
  }
}
