{
  "generatedAt": "2026-03-07T17:48:54.066Z",
  "county": {
    "id": "宜蘭縣",
    "name": "宜蘭縣",
    "shortLabel": "宜蘭",
    "region": "北部"
  },
  "precisions": {
    "5": [
      {
        "id": "5-wsqs6",
        "geohash": "wsqs6",
        "precision": 5,
        "count": 17,
        "latitude": 24.673438,
        "longitude": 121.761005,
        "bounds": {
          "minLatitude": 24.653873,
          "maxLatitude": 24.692576,
          "minLongitude": 121.731518,
          "maxLongitude": 121.772431
        },
        "topSchools": [
          {
            "id": "024504",
            "name": "縣立羅東國中",
            "townshipName": "羅東鎮",
            "students": 1513,
            "status": "正常"
          },
          {
            "id": "024613",
            "name": "縣立北成國小",
            "townshipName": "羅東鎮",
            "students": 1507,
            "status": "正常"
          },
          {
            "id": "024612",
            "name": "縣立公正國小",
            "townshipName": "羅東鎮",
            "students": 1475,
            "status": "正常"
          },
          {
            "id": "020308",
            "name": "國立羅東高中",
            "townshipName": "羅東鎮",
            "students": 1295,
            "status": "正常"
          }
        ]
      },
      {
        "id": "5-wsqsf",
        "geohash": "wsqsf",
        "precision": 5,
        "count": 16,
        "latitude": 24.756505,
        "longitude": 121.751733,
        "bounds": {
          "minLatitude": 24.745056,
          "maxLatitude": 24.779682,
          "minLongitude": 121.72889,
          "maxLongitude": 121.767501
        },
        "topSchools": [
          {
            "id": "0031",
            "name": "國立宜蘭大學",
            "townshipName": "宜蘭市",
            "students": 5447,
            "status": "正常"
          },
          {
            "id": "020403",
            "name": "國立宜蘭高商",
            "townshipName": "宜蘭市",
            "students": 1425,
            "status": "正常"
          },
          {
            "id": "024608",
            "name": "縣立黎明國小",
            "townshipName": "宜蘭市",
            "students": 1404,
            "status": "正常"
          },
          {
            "id": "020301",
            "name": "國立蘭陽女中",
            "townshipName": "宜蘭市",
            "students": 1392,
            "status": "正常"
          }
        ]
      },
      {
        "id": "5-wsqsd",
        "geohash": "wsqsd",
        "precision": 5,
        "count": 6,
        "latitude": 24.718295,
        "longitude": 121.757036,
        "bounds": {
          "minLatitude": 24.699288,
          "maxLatitude": 24.733408,
          "minLongitude": 121.737574,
          "maxLongitude": 121.770831
        },
        "topSchools": [
          {
            "id": "024524",
            "name": "縣立凱旋國中",
            "townshipName": "宜蘭市",
            "students": 502,
            "status": "正常"
          },
          {
            "id": "024607",
            "name": "縣立凱旋國小",
            "townshipName": "宜蘭市",
            "students": 479,
            "status": "正常"
          },
          {
            "id": "024606",
            "name": "縣立育才國小",
            "townshipName": "宜蘭市",
            "students": 318,
            "status": "正常"
          },
          {
            "id": "024650",
            "name": "縣立學進國小",
            "townshipName": "五結鄉",
            "students": 261,
            "status": "正常"
          }
        ]
      },
      {
        "id": "5-wsqe5",
        "geohash": "wsqe5",
        "precision": 5,
        "count": 6,
        "latitude": 24.464665,
        "longitude": 121.790934,
        "bounds": {
          "minLatitude": 24.445607,
          "maxLatitude": 24.474069,
          "minLongitude": 121.777341,
          "maxLongitude": 121.803016
        },
        "topSchools": [
          {
            "id": "024322",
            "name": "縣立南澳高中",
            "townshipName": "南澳鄉",
            "students": 240,
            "status": "正常"
          },
          {
            "id": "024617",
            "name": "縣立蓬萊國小",
            "townshipName": "蘇澳鎮",
            "students": 101,
            "status": "正常"
          },
          {
            "id": "024673",
            "name": "縣立碧候國小",
            "townshipName": "南澳鄉",
            "students": 78,
            "status": "正常"
          },
          {
            "id": "024672",
            "name": "縣立南澳國小",
            "townshipName": "南澳鄉",
            "students": 56,
            "status": "正常"
          }
        ]
      },
      {
        "id": "5-wsqsg",
        "geohash": "wsqsg",
        "precision": 5,
        "count": 5,
        "latitude": 24.756633,
        "longitude": 121.797044,
        "bounds": {
          "minLatitude": 24.74358,
          "maxLatitude": 24.771482,
          "minLongitude": 121.788511,
          "maxLongitude": 121.8147
        },
        "topSchools": [
          {
            "id": "021310",
            "name": "私立中道高中",
            "townshipName": "壯圍鄉",
            "students": 980,
            "status": "正常"
          },
          {
            "id": "024644",
            "name": "縣立古亭國小",
            "townshipName": "壯圍鄉",
            "students": 327,
            "status": "正常"
          },
          {
            "id": "024521",
            "name": "縣立壯圍國中",
            "townshipName": "壯圍鄉",
            "students": 315,
            "status": "正常"
          },
          {
            "id": "024643",
            "name": "縣立壯圍國小",
            "townshipName": "壯圍鄉",
            "students": 219,
            "status": "正常"
          }
        ]
      },
      {
        "id": "5-wsqsc",
        "geohash": "wsqsc",
        "precision": 5,
        "count": 5,
        "latitude": 24.759782,
        "longitude": 121.708467,
        "bounds": {
          "minLatitude": 24.743823,
          "maxLatitude": 24.779496,
          "minLongitude": 121.691075,
          "maxLongitude": 121.722404
        },
        "topSchools": [
          {
            "id": "021301",
            "name": "私立慧燈高中",
            "townshipName": "員山鄉",
            "students": 1496,
            "status": "正常"
          },
          {
            "id": "024634",
            "name": "縣立員山國小",
            "townshipName": "員山鄉",
            "students": 281,
            "status": "正常"
          },
          {
            "id": "024519",
            "name": "縣立員山國中",
            "townshipName": "員山鄉",
            "students": 191,
            "status": "正常"
          },
          {
            "id": "024638",
            "name": "縣立湖山國小",
            "townshipName": "員山鄉",
            "students": 84,
            "status": "正常"
          }
        ]
      },
      {
        "id": "5-wsqtk",
        "geohash": "wsqtk",
        "precision": 5,
        "count": 5,
        "latitude": 24.859987,
        "longitude": 121.821153,
        "bounds": {
          "minLatitude": 24.851252,
          "maxLatitude": 24.864787,
          "minLongitude": 121.817125,
          "maxLongitude": 121.827573
        },
        "topSchools": [
          {
            "id": "020409",
            "name": "國立頭城家商",
            "townshipName": "頭城鎮",
            "students": 679,
            "status": "正常"
          },
          {
            "id": "024623",
            "name": "縣立頭城國小",
            "townshipName": "頭城鎮",
            "students": 537,
            "status": "正常"
          },
          {
            "id": "024507",
            "name": "縣立頭城國中",
            "townshipName": "頭城鎮",
            "students": 391,
            "status": "正常"
          },
          {
            "id": "024698",
            "name": "縣立人文國(中)小",
            "townshipName": "頭城鎮",
            "students": 119,
            "status": "正常"
          }
        ]
      },
      {
        "id": "5-wsqt4",
        "geohash": "wsqt4",
        "precision": 5,
        "count": 5,
        "latitude": 24.804982,
        "longitude": 121.763226,
        "bounds": {
          "minLatitude": 24.785268,
          "maxLatitude": 24.821686,
          "minLongitude": 121.759814,
          "maxLongitude": 121.768455
        },
        "topSchools": [
          {
            "id": "024629",
            "name": "縣立礁溪國小",
            "townshipName": "礁溪鄉",
            "students": 654,
            "status": "正常"
          },
          {
            "id": "024512",
            "name": "縣立礁溪國中",
            "townshipName": "礁溪鄉",
            "students": 330,
            "status": "正常"
          },
          {
            "id": "024630",
            "name": "縣立四結國小",
            "townshipName": "礁溪鄉",
            "students": 197,
            "status": "正常"
          },
          {
            "id": "024633",
            "name": "縣立三民國小",
            "townshipName": "礁溪鄉",
            "students": 142,
            "status": "正常"
          }
        ]
      },
      {
        "id": "5-wsqsh",
        "geohash": "wsqsh",
        "precision": 5,
        "count": 5,
        "latitude": 24.621642,
        "longitude": 121.841591,
        "bounds": {
          "minLatitude": 24.614055,
          "maxLatitude": 24.640116,
          "minLongitude": 121.832682,
          "maxLongitude": 121.853319
        },
        "topSchools": [
          {
            "id": "024616",
            "name": "縣立馬賽國小",
            "townshipName": "蘇澳鎮",
            "students": 603,
            "status": "正常"
          },
          {
            "id": "024509",
            "name": "縣立文化國中",
            "townshipName": "蘇澳鎮",
            "students": 485,
            "status": "正常"
          },
          {
            "id": "024621",
            "name": "縣立岳明國(中)小",
            "townshipName": "蘇澳鎮",
            "students": 203,
            "status": "正常"
          },
          {
            "id": "024622",
            "name": "縣立育英國小",
            "townshipName": "蘇澳鎮",
            "students": 111,
            "status": "正常"
          }
        ]
      },
      {
        "id": "5-wsqeu",
        "geohash": "wsqeu",
        "precision": 5,
        "count": 5,
        "latitude": 24.591045,
        "longitude": 121.843515,
        "bounds": {
          "minLatitude": 24.575679,
          "maxLatitude": 24.596825,
          "minLongitude": 121.835071,
          "maxLongitude": 121.853807
        },
        "topSchools": [
          {
            "id": "020405",
            "name": "國立蘇澳海事",
            "townshipName": "蘇澳鎮",
            "students": 330,
            "status": "正常"
          },
          {
            "id": "024615",
            "name": "縣立蘇澳國小",
            "townshipName": "蘇澳鎮",
            "students": 323,
            "status": "正常"
          },
          {
            "id": "024508",
            "name": "縣立蘇澳國中",
            "townshipName": "蘇澳鎮",
            "students": 182,
            "status": "正常"
          },
          {
            "id": "024618",
            "name": "縣立士敏國小",
            "townshipName": "蘇澳鎮",
            "students": 75,
            "status": "正常"
          }
        ]
      },
      {
        "id": "5-wsqs3",
        "geohash": "wsqs3",
        "precision": 5,
        "count": 4,
        "latitude": 24.676458,
        "longitude": 121.708011,
        "bounds": {
          "minLatitude": 24.66501,
          "maxLatitude": 24.692983,
          "minLongitude": 121.688528,
          "maxLongitude": 121.727399
        },
        "topSchools": [
          {
            "id": "1291",
            "name": "聖母醫護管理專科學校",
            "townshipName": "三星鄉",
            "students": 1416,
            "status": "正常"
          },
          {
            "id": "024665",
            "name": "縣立大隱國小",
            "townshipName": "三星鄉",
            "students": 174,
            "status": "正常"
          },
          {
            "id": "024662",
            "name": "縣立大洲國小",
            "townshipName": "三星鄉",
            "students": 137,
            "status": "正常"
          },
          {
            "id": "024664",
            "name": "縣立萬富國小",
            "townshipName": "三星鄉",
            "students": 70,
            "status": "正常"
          }
        ]
      },
      {
        "id": "5-wsqs7",
        "geohash": "wsqs7",
        "precision": 5,
        "count": 4,
        "latitude": 24.685269,
        "longitude": 121.80261,
        "bounds": {
          "minLatitude": 24.661573,
          "maxLatitude": 24.696499,
          "minLongitude": 121.798791,
          "maxLongitude": 121.812278
        },
        "topSchools": [
          {
            "id": "024649",
            "name": "縣立五結國小",
            "townshipName": "五結鄉",
            "students": 530,
            "status": "正常"
          },
          {
            "id": "024516",
            "name": "縣立五結國中",
            "townshipName": "五結鄉",
            "students": 243,
            "status": "正常"
          },
          {
            "id": "024653",
            "name": "縣立孝威國小",
            "townshipName": "五結鄉",
            "students": 86,
            "status": "正常"
          },
          {
            "id": "024657",
            "name": "縣立武淵國小",
            "townshipName": "冬山鄉",
            "students": 71,
            "status": "正常"
          }
        ]
      },
      {
        "id": "5-wsqs5",
        "geohash": "wsqs5",
        "precision": 5,
        "count": 4,
        "latitude": 24.629931,
        "longitude": 121.795893,
        "bounds": {
          "minLatitude": 24.626452,
          "maxLatitude": 24.632291,
          "minLongitude": 121.789947,
          "maxLongitude": 121.806787
        },
        "topSchools": [
          {
            "id": "024325",
            "name": "縣立慈心華德福實中",
            "townshipName": "冬山鄉",
            "students": 844,
            "status": "正常"
          },
          {
            "id": "024654",
            "name": "縣立冬山國小",
            "townshipName": "冬山鄉",
            "students": 612,
            "status": "正常"
          },
          {
            "id": "024514",
            "name": "縣立冬山國中",
            "townshipName": "冬山鄉",
            "students": 269,
            "status": "正常"
          },
          {
            "id": "024655",
            "name": "縣立東興國小",
            "townshipName": "冬山鄉",
            "students": 71,
            "status": "正常"
          }
        ]
      },
      {
        "id": "5-wsqs9",
        "geohash": "wsqs9",
        "precision": 5,
        "count": 3,
        "latitude": 24.719853,
        "longitude": 121.69991,
        "bounds": {
          "minLatitude": 24.717997,
          "maxLatitude": 24.723565,
          "minLongitude": 121.687826,
          "maxLongitude": 121.724077
        },
        "topSchools": [
          {
            "id": "024640",
            "name": "縣立內城國(中)小",
            "townshipName": "員山鄉",
            "students": 120,
            "status": "正常"
          },
          {
            "id": "024635",
            "name": "縣立深溝國小",
            "townshipName": "員山鄉",
            "students": 100,
            "status": "正常"
          },
          {
            "id": "024520",
            "name": "縣立內城國中(小)",
            "townshipName": "員山鄉",
            "students": 84,
            "status": "正常"
          }
        ]
      },
      {
        "id": "5-wsqs2",
        "geohash": "wsqs2",
        "precision": 5,
        "count": 2,
        "latitude": 24.667039,
        "longitude": 121.652264,
        "bounds": {
          "minLatitude": 24.666279,
          "maxLatitude": 24.667799,
          "minLongitude": 121.650793,
          "maxLongitude": 121.653735
        },
        "topSchools": [
          {
            "id": "024661",
            "name": "縣立三星國小",
            "townshipName": "三星鄉",
            "students": 226,
            "status": "正常"
          },
          {
            "id": "024511",
            "name": "縣立三星國中",
            "townshipName": "三星鄉",
            "students": 178,
            "status": "正常"
          }
        ]
      },
      {
        "id": "5-wsqkr",
        "geohash": "wsqkr",
        "precision": 5,
        "count": 2,
        "latitude": 24.669512,
        "longitude": 121.613771,
        "bounds": {
          "minLatitude": 24.660762,
          "maxLatitude": 24.678263,
          "minLongitude": 121.608987,
          "maxLongitude": 121.618554
        },
        "topSchools": [
          {
            "id": "024663",
            "name": "縣立憲明國小",
            "townshipName": "三星鄉",
            "students": 71,
            "status": "正常"
          },
          {
            "id": "024670",
            "name": "縣立大同國小",
            "townshipName": "大同鄉",
            "students": 67,
            "status": "正常"
          }
        ]
      },
      {
        "id": "5-wsqsk",
        "geohash": "wsqsk",
        "precision": 5,
        "count": 2,
        "latitude": 24.665644,
        "longitude": 121.828417,
        "bounds": {
          "minLatitude": 24.665479,
          "maxLatitude": 24.665808,
          "minLongitude": 121.827667,
          "maxLongitude": 121.829166
        },
        "topSchools": [
          {
            "id": "024652",
            "name": "縣立利澤國小",
            "townshipName": "五結鄉",
            "students": 277,
            "status": "正常"
          },
          {
            "id": "024518",
            "name": "縣立利澤國中",
            "townshipName": "五結鄉",
            "students": 105,
            "status": "正常"
          }
        ]
      },
      {
        "id": "5-wsqt5",
        "geohash": "wsqt5",
        "precision": 5,
        "count": 2,
        "latitude": 24.798709,
        "longitude": 121.802286,
        "bounds": {
          "minLatitude": 24.795669,
          "maxLatitude": 24.801749,
          "minLongitude": 121.790386,
          "maxLongitude": 121.814186
        },
        "topSchools": [
          {
            "id": "024632",
            "name": "縣立玉田國小",
            "townshipName": "礁溪鄉",
            "students": 67,
            "status": "正常"
          },
          {
            "id": "024647",
            "name": "縣立大福國小",
            "townshipName": "壯圍鄉",
            "students": 48,
            "status": "正常"
          }
        ]
      },
      {
        "id": "5-wsqev",
        "geohash": "wsqev",
        "precision": 5,
        "count": 2,
        "latitude": 24.576831,
        "longitude": 121.868443,
        "bounds": {
          "minLatitude": 24.574754,
          "maxLatitude": 24.578909,
          "minLongitude": 121.86839,
          "maxLongitude": 121.868495
        },
        "topSchools": [
          {
            "id": "024620",
            "name": "縣立南安國小",
            "townshipName": "蘇澳鎮",
            "students": 122,
            "status": "正常"
          },
          {
            "id": "024510",
            "name": "縣立南安國中",
            "townshipName": "蘇澳鎮",
            "students": 45,
            "status": "正常"
          }
        ]
      },
      {
        "id": "5-wsq77",
        "geohash": "wsq77",
        "precision": 5,
        "count": 1,
        "latitude": 24.488407,
        "longitude": 121.426676,
        "bounds": {
          "minLatitude": 24.488407,
          "maxLatitude": 24.488407,
          "minLongitude": 121.426676,
          "maxLongitude": 121.426676
        },
        "topSchools": [
          {
            "id": "024668",
            "name": "縣立四季國小",
            "townshipName": "大同鄉",
            "students": 97,
            "status": "正常"
          }
        ]
      },
      {
        "id": "5-wsqec",
        "geohash": "wsqec",
        "precision": 5,
        "count": 1,
        "latitude": 24.609168,
        "longitude": 121.687154,
        "bounds": {
          "minLatitude": 24.609168,
          "maxLatitude": 24.609168,
          "minLongitude": 121.687154,
          "maxLongitude": 121.687154
        },
        "topSchools": [
          {
            "id": "024671",
            "name": "縣立寒溪國小",
            "townshipName": "大同鄉",
            "students": 59,
            "status": "正常"
          }
        ]
      },
      {
        "id": "5-wsq74",
        "geohash": "wsq74",
        "precision": 5,
        "count": 1,
        "latitude": 24.437308,
        "longitude": 121.380617,
        "bounds": {
          "minLatitude": 24.437308,
          "maxLatitude": 24.437308,
          "minLongitude": 121.380617,
          "maxLongitude": 121.380617
        },
        "topSchools": [
          {
            "id": "024669",
            "name": "縣立南山國小",
            "townshipName": "大同鄉",
            "students": 46,
            "status": "正常"
          }
        ]
      },
      {
        "id": "5-wsq7u",
        "geohash": "wsq7u",
        "precision": 5,
        "count": 1,
        "latitude": 24.574263,
        "longitude": 121.47793,
        "bounds": {
          "minLatitude": 24.574263,
          "maxLatitude": 24.574263,
          "minLongitude": 121.47793,
          "maxLongitude": 121.47793
        },
        "topSchools": [
          {
            "id": "024523",
            "name": "縣立大同國中",
            "townshipName": "大同鄉",
            "students": 36,
            "status": "正常"
          }
        ]
      },
      {
        "id": "5-wsqs1",
        "geohash": "wsqs1",
        "precision": 5,
        "count": 1,
        "latitude": 24.634085,
        "longitude": 121.716432,
        "bounds": {
          "minLatitude": 24.634085,
          "maxLatitude": 24.634085,
          "minLongitude": 121.716432,
          "maxLongitude": 121.716432
        },
        "topSchools": [
          {
            "id": "024659",
            "name": "縣立大進國小",
            "townshipName": "冬山鄉",
            "students": 74,
            "status": "正常"
          }
        ]
      },
      {
        "id": "5-wsqse",
        "geohash": "wsqse",
        "precision": 5,
        "count": 1,
        "latitude": 24.722599,
        "longitude": 121.799976,
        "bounds": {
          "minLatitude": 24.722599,
          "maxLatitude": 24.722599,
          "minLongitude": 121.799976,
          "maxLongitude": 121.799976
        },
        "topSchools": [
          {
            "id": "024648",
            "name": "縣立新南國小",
            "townshipName": "壯圍鄉",
            "students": 72,
            "status": "正常"
          }
        ]
      },
      {
        "id": "5-wsqss",
        "geohash": "wsqss",
        "precision": 5,
        "count": 1,
        "latitude": 24.735901,
        "longitude": 121.816562,
        "bounds": {
          "minLatitude": 24.735901,
          "maxLatitude": 24.735901,
          "minLongitude": 121.816562,
          "maxLongitude": 121.816562
        },
        "topSchools": [
          {
            "id": "024645",
            "name": "縣立公館國小",
            "townshipName": "壯圍鄉",
            "students": 66,
            "status": "正常"
          }
        ]
      },
      {
        "id": "5-wsqd6",
        "geohash": "wsqd6",
        "precision": 5,
        "count": 1,
        "latitude": 24.329383,
        "longitude": 121.739578,
        "bounds": {
          "minLatitude": 24.329383,
          "maxLatitude": 24.329383,
          "minLongitude": 121.739578,
          "maxLongitude": 121.739578
        },
        "topSchools": [
          {
            "id": "024675",
            "name": "縣立澳花國小",
            "townshipName": "南澳鄉",
            "students": 73,
            "status": "正常"
          }
        ]
      },
      {
        "id": "5-wsqes",
        "geohash": "wsqes",
        "precision": 5,
        "count": 1,
        "latitude": 24.521585,
        "longitude": 121.832931,
        "bounds": {
          "minLatitude": 24.521585,
          "maxLatitude": 24.521585,
          "minLongitude": 121.832931,
          "maxLongitude": 121.832931
        },
        "topSchools": [
          {
            "id": "024676",
            "name": "縣立東澳國小",
            "townshipName": "南澳鄉",
            "students": 46,
            "status": "正常"
          }
        ]
      },
      {
        "id": "5-wsqdf",
        "geohash": "wsqdf",
        "precision": 5,
        "count": 1,
        "latitude": 24.426115,
        "longitude": 121.749136,
        "bounds": {
          "minLatitude": 24.426115,
          "maxLatitude": 24.426115,
          "minLongitude": 121.749136,
          "maxLongitude": 121.749136
        },
        "topSchools": [
          {
            "id": "024678",
            "name": "縣立金洋國小",
            "townshipName": "南澳鄉",
            "students": 31,
            "status": "正常"
          }
        ]
      },
      {
        "id": "5-wsqt7",
        "geohash": "wsqt7",
        "precision": 5,
        "count": 1,
        "latitude": 24.843634,
        "longitude": 121.805272,
        "bounds": {
          "minLatitude": 24.843634,
          "maxLatitude": 24.843634,
          "minLongitude": 121.805272,
          "maxLongitude": 121.805272
        },
        "topSchools": [
          {
            "id": "024625",
            "name": "縣立二城國小",
            "townshipName": "頭城鎮",
            "students": 265,
            "status": "正常"
          }
        ]
      },
      {
        "id": "5-wsqtv",
        "geohash": "wsqtv",
        "precision": 5,
        "count": 1,
        "latitude": 24.93552,
        "longitude": 121.886464,
        "bounds": {
          "minLatitude": 24.93552,
          "maxLatitude": 24.93552,
          "minLongitude": 121.886464,
          "maxLongitude": 121.886464
        },
        "topSchools": [
          {
            "id": "024626",
            "name": "縣立大溪國小",
            "townshipName": "頭城鎮",
            "students": 104,
            "status": "正常"
          }
        ]
      },
      {
        "id": "5-wsqth",
        "geohash": "wsqth",
        "precision": 5,
        "count": 1,
        "latitude": 24.825139,
        "longitude": 121.820334,
        "bounds": {
          "minLatitude": 24.825139,
          "maxLatitude": 24.825139,
          "minLongitude": 121.820334,
          "maxLongitude": 121.820334
        },
        "topSchools": [
          {
            "id": "024624",
            "name": "縣立竹安國小",
            "townshipName": "頭城鎮",
            "students": 94,
            "status": "正常"
          }
        ]
      },
      {
        "id": "5-wsqtt",
        "geohash": "wsqtt",
        "precision": 5,
        "count": 1,
        "latitude": 24.900758,
        "longitude": 121.862177,
        "bounds": {
          "minLatitude": 24.900758,
          "maxLatitude": 24.900758,
          "minLongitude": 121.862177,
          "maxLongitude": 121.862177
        },
        "topSchools": [
          {
            "id": "024628",
            "name": "縣立梗枋國小",
            "townshipName": "頭城鎮",
            "students": 65,
            "status": "正常"
          }
        ]
      },
      {
        "id": "5-wsqwn",
        "geohash": "wsqwn",
        "precision": 5,
        "count": 1,
        "latitude": 24.97061,
        "longitude": 121.92646,
        "bounds": {
          "minLatitude": 24.97061,
          "maxLatitude": 24.97061,
          "minLongitude": 121.92646,
          "maxLongitude": 121.92646
        },
        "topSchools": [
          {
            "id": "024627",
            "name": "縣立大里國小",
            "townshipName": "頭城鎮",
            "students": 63,
            "status": "正常"
          }
        ]
      },
      {
        "id": "5-wsqt1",
        "geohash": "wsqt1",
        "precision": 5,
        "count": 1,
        "latitude": 24.81568,
        "longitude": 121.723778,
        "bounds": {
          "minLatitude": 24.81568,
          "maxLatitude": 24.81568,
          "minLongitude": 121.723778,
          "maxLongitude": 121.723778
        },
        "topSchools": [
          {
            "id": "1050",
            "name": "佛光大學",
            "townshipName": "礁溪鄉",
            "students": 2525,
            "status": "正常"
          }
        ]
      }
    ],
    "6": [
      {
        "id": "6-wsqs6e",
        "geohash": "wsqs6e",
        "precision": 6,
        "count": 3,
        "latitude": 24.672659,
        "longitude": 121.755623,
        "bounds": {
          "minLatitude": 24.670271,
          "maxLatitude": 24.674897,
          "minLongitude": 121.751072,
          "maxLongitude": 121.75866
        },
        "topSchools": [
          {
            "id": "024613",
            "name": "縣立北成國小",
            "townshipName": "羅東鎮",
            "students": 1507,
            "status": "正常"
          },
          {
            "id": "020404",
            "name": "國立羅東高商",
            "townshipName": "羅東鎮",
            "students": 1219,
            "status": "正常"
          },
          {
            "id": "020407",
            "name": "國立羅東高工",
            "townshipName": "冬山鄉",
            "students": 1218,
            "status": "正常"
          }
        ]
      },
      {
        "id": "6-wsqs6g",
        "geohash": "wsqs6g",
        "precision": 6,
        "count": 3,
        "latitude": 24.671756,
        "longitude": 121.769195,
        "bounds": {
          "minLatitude": 24.670879,
          "maxLatitude": 24.672653,
          "minLongitude": 121.766806,
          "maxLongitude": 121.77199
        },
        "topSchools": [
          {
            "id": "024611",
            "name": "縣立成功國小",
            "townshipName": "羅東鎮",
            "students": 845,
            "status": "正常"
          },
          {
            "id": "024610",
            "name": "縣立羅東國小",
            "townshipName": "羅東鎮",
            "students": 764,
            "status": "正常"
          },
          {
            "id": "024505",
            "name": "縣立東光國中",
            "townshipName": "羅東鎮",
            "students": 506,
            "status": "正常"
          }
        ]
      },
      {
        "id": "6-wsqsk6",
        "geohash": "wsqsk6",
        "precision": 6,
        "count": 2,
        "latitude": 24.665644,
        "longitude": 121.828417,
        "bounds": {
          "minLatitude": 24.665479,
          "maxLatitude": 24.665808,
          "minLongitude": 121.827667,
          "maxLongitude": 121.829166
        },
        "topSchools": [
          {
            "id": "024652",
            "name": "縣立利澤國小",
            "townshipName": "五結鄉",
            "students": 277,
            "status": "正常"
          },
          {
            "id": "024518",
            "name": "縣立利澤國中",
            "townshipName": "五結鄉",
            "students": 105,
            "status": "正常"
          }
        ]
      },
      {
        "id": "6-wsqs5k",
        "geohash": "wsqs5k",
        "precision": 6,
        "count": 2,
        "latitude": 24.632089,
        "longitude": 121.790988,
        "bounds": {
          "minLatitude": 24.631886,
          "maxLatitude": 24.632291,
          "minLongitude": 121.789947,
          "maxLongitude": 121.79203
        },
        "topSchools": [
          {
            "id": "024654",
            "name": "縣立冬山國小",
            "townshipName": "冬山鄉",
            "students": 612,
            "status": "正常"
          },
          {
            "id": "024514",
            "name": "縣立冬山國中",
            "townshipName": "冬山鄉",
            "students": 269,
            "status": "正常"
          }
        ]
      },
      {
        "id": "6-wsqs6b",
        "geohash": "wsqs6b",
        "precision": 6,
        "count": 2,
        "latitude": 24.654015,
        "longitude": 121.764212,
        "bounds": {
          "minLatitude": 24.653873,
          "maxLatitude": 24.654156,
          "minLongitude": 121.762807,
          "maxLongitude": 121.765617
        },
        "topSchools": [
          {
            "id": "024656",
            "name": "縣立順安國小",
            "townshipName": "冬山鄉",
            "students": 373,
            "status": "正常"
          },
          {
            "id": "024515",
            "name": "縣立順安國中",
            "townshipName": "冬山鄉",
            "students": 214,
            "status": "正常"
          }
        ]
      },
      {
        "id": "6-wsqsfc",
        "geohash": "wsqsfc",
        "precision": 6,
        "count": 2,
        "latitude": 24.751021,
        "longitude": 121.765887,
        "bounds": {
          "minLatitude": 24.750408,
          "maxLatitude": 24.751634,
          "minLongitude": 121.764274,
          "maxLongitude": 121.767501
        },
        "topSchools": [
          {
            "id": "024608",
            "name": "縣立黎明國小",
            "townshipName": "宜蘭市",
            "students": 1404,
            "status": "正常"
          },
          {
            "id": "024502",
            "name": "縣立中華國中",
            "townshipName": "宜蘭市",
            "students": 880,
            "status": "正常"
          }
        ]
      },
      {
        "id": "6-wsqsf3",
        "geohash": "wsqsf3",
        "precision": 6,
        "count": 2,
        "latitude": 24.749988,
        "longitude": 121.744892,
        "bounds": {
          "minLatitude": 24.748862,
          "maxLatitude": 24.751114,
          "minLongitude": 121.742789,
          "maxLongitude": 121.746996
        },
        "topSchools": [
          {
            "id": "020302",
            "name": "國立宜蘭高中",
            "townshipName": "宜蘭市",
            "students": 1387,
            "status": "正常"
          },
          {
            "id": "024503",
            "name": "縣立復興國中",
            "townshipName": "宜蘭市",
            "students": 1271,
            "status": "正常"
          }
        ]
      },
      {
        "id": "6-wsqsf6",
        "geohash": "wsqsf6",
        "precision": 6,
        "count": 2,
        "latitude": 24.754562,
        "longitude": 121.744691,
        "bounds": {
          "minLatitude": 24.753871,
          "maxLatitude": 24.755252,
          "minLongitude": 121.742116,
          "maxLongitude": 121.747266
        },
        "topSchools": [
          {
            "id": "024605",
            "name": "縣立光復國小",
            "townshipName": "宜蘭市",
            "students": 1301,
            "status": "正常"
          },
          {
            "id": "024609",
            "name": "縣立南屏國小",
            "townshipName": "宜蘭市",
            "students": 587,
            "status": "正常"
          }
        ]
      },
      {
        "id": "6-wsqsfd",
        "geohash": "wsqsfd",
        "precision": 6,
        "count": 2,
        "latitude": 24.75359,
        "longitude": 121.75445,
        "bounds": {
          "minLatitude": 24.753128,
          "maxLatitude": 24.754052,
          "minLongitude": 121.754194,
          "maxLongitude": 121.754706
        },
        "topSchools": [
          {
            "id": "024601",
            "name": "縣立中山國小",
            "townshipName": "宜蘭市",
            "students": 759,
            "status": "正常"
          },
          {
            "id": "024602",
            "name": "縣立宜蘭國小",
            "townshipName": "宜蘭市",
            "students": 398,
            "status": "正常"
          }
        ]
      },
      {
        "id": "6-wsqe5t",
        "geohash": "wsqe5t",
        "precision": 6,
        "count": 2,
        "latitude": 24.465066,
        "longitude": 121.802194,
        "bounds": {
          "minLatitude": 24.464568,
          "maxLatitude": 24.465563,
          "minLongitude": 121.801371,
          "maxLongitude": 121.803016
        },
        "topSchools": [
          {
            "id": "024322",
            "name": "縣立南澳高中",
            "townshipName": "南澳鄉",
            "students": 240,
            "status": "正常"
          },
          {
            "id": "024617",
            "name": "縣立蓬萊國小",
            "townshipName": "蘇澳鎮",
            "students": 101,
            "status": "正常"
          }
        ]
      },
      {
        "id": "6-wsqs95",
        "geohash": "wsqs95",
        "precision": 6,
        "count": 2,
        "latitude": 24.717997,
        "longitude": 121.687826,
        "bounds": {
          "minLatitude": 24.717997,
          "maxLatitude": 24.717997,
          "minLongitude": 121.687826,
          "maxLongitude": 121.687826
        },
        "topSchools": [
          {
            "id": "024640",
            "name": "縣立內城國(中)小",
            "townshipName": "員山鄉",
            "students": 120,
            "status": "正常"
          },
          {
            "id": "024520",
            "name": "縣立內城國中(小)",
            "townshipName": "員山鄉",
            "students": 84,
            "status": "正常"
          }
        ]
      },
      {
        "id": "6-wsqtkj",
        "geohash": "wsqtkj",
        "precision": 6,
        "count": 2,
        "latitude": 24.860532,
        "longitude": 121.819901,
        "bounds": {
          "minLatitude": 24.860532,
          "maxLatitude": 24.860532,
          "minLongitude": 121.819901,
          "maxLongitude": 121.819901
        },
        "topSchools": [
          {
            "id": "024698",
            "name": "縣立人文國(中)小",
            "townshipName": "頭城鎮",
            "students": 119,
            "status": "正常"
          },
          {
            "id": "024526",
            "name": "縣立人文國中(小)",
            "townshipName": "頭城鎮",
            "students": 71,
            "status": "正常"
          }
        ]
      },
      {
        "id": "6-wsqt48",
        "geohash": "wsqt48",
        "precision": 6,
        "count": 2,
        "latitude": 24.786244,
        "longitude": 121.759913,
        "bounds": {
          "minLatitude": 24.785268,
          "maxLatitude": 24.78722,
          "minLongitude": 121.759814,
          "maxLongitude": 121.760012
        },
        "topSchools": [
          {
            "id": "024630",
            "name": "縣立四結國小",
            "townshipName": "礁溪鄉",
            "students": 197,
            "status": "正常"
          },
          {
            "id": "024513",
            "name": "縣立吳沙國中",
            "townshipName": "礁溪鄉",
            "students": 116,
            "status": "正常"
          }
        ]
      },
      {
        "id": "6-wsqs6v",
        "geohash": "wsqs6v",
        "precision": 6,
        "count": 2,
        "latitude": 24.681896,
        "longitude": 121.765105,
        "bounds": {
          "minLatitude": 24.680972,
          "maxLatitude": 24.68282,
          "minLongitude": 121.762088,
          "maxLongitude": 121.768121
        },
        "topSchools": [
          {
            "id": "024504",
            "name": "縣立羅東國中",
            "townshipName": "羅東鎮",
            "students": 1513,
            "status": "正常"
          },
          {
            "id": "020308",
            "name": "國立羅東高中",
            "townshipName": "羅東鎮",
            "students": 1295,
            "status": "正常"
          }
        ]
      },
      {
        "id": "6-wsqs6u",
        "geohash": "wsqs6u",
        "precision": 6,
        "count": 2,
        "latitude": 24.678217,
        "longitude": 121.763789,
        "bounds": {
          "minLatitude": 24.677627,
          "maxLatitude": 24.678806,
          "minLongitude": 121.761678,
          "maxLongitude": 121.7659
        },
        "topSchools": [
          {
            "id": "024612",
            "name": "縣立公正國小",
            "townshipName": "羅東鎮",
            "students": 1475,
            "status": "正常"
          },
          {
            "id": "024506",
            "name": "縣立國華國中",
            "townshipName": "羅東鎮",
            "students": 1113,
            "status": "正常"
          }
        ]
      },
      {
        "id": "6-wsqeut",
        "geohash": "wsqeut",
        "precision": 6,
        "count": 2,
        "latitude": 24.59554,
        "longitude": 121.84239,
        "bounds": {
          "minLatitude": 24.594254,
          "maxLatitude": 24.596825,
          "minLongitude": 121.841196,
          "maxLongitude": 121.843585
        },
        "topSchools": [
          {
            "id": "020405",
            "name": "國立蘇澳海事",
            "townshipName": "蘇澳鎮",
            "students": 330,
            "status": "正常"
          },
          {
            "id": "024615",
            "name": "縣立蘇澳國小",
            "townshipName": "蘇澳鎮",
            "students": 323,
            "status": "正常"
          }
        ]
      },
      {
        "id": "6-wsqshb",
        "geohash": "wsqshb",
        "precision": 6,
        "count": 2,
        "latitude": 24.614055,
        "longitude": 121.853319,
        "bounds": {
          "minLatitude": 24.614055,
          "maxLatitude": 24.614055,
          "minLongitude": 121.853319,
          "maxLongitude": 121.853319
        },
        "topSchools": [
          {
            "id": "024621",
            "name": "縣立岳明國(中)小",
            "townshipName": "蘇澳鎮",
            "students": 203,
            "status": "正常"
          },
          {
            "id": "024527",
            "name": "縣立岳明國中(小)",
            "townshipName": "蘇澳鎮",
            "students": 64,
            "status": "正常"
          }
        ]
      },
      {
        "id": "6-wsqs36",
        "geohash": "wsqs36",
        "precision": 6,
        "count": 1,
        "latitude": 24.66501,
        "longitude": 121.702992,
        "bounds": {
          "minLatitude": 24.66501,
          "maxLatitude": 24.66501,
          "minLongitude": 121.702992,
          "maxLongitude": 121.702992
        },
        "topSchools": [
          {
            "id": "1291",
            "name": "聖母醫護管理專科學校",
            "townshipName": "三星鄉",
            "students": 1416,
            "status": "正常"
          }
        ]
      },
      {
        "id": "6-wsqs24",
        "geohash": "wsqs24",
        "precision": 6,
        "count": 1,
        "latitude": 24.666279,
        "longitude": 121.650793,
        "bounds": {
          "minLatitude": 24.666279,
          "maxLatitude": 24.666279,
          "minLongitude": 121.650793,
          "maxLongitude": 121.650793
        },
        "topSchools": [
          {
            "id": "024661",
            "name": "縣立三星國小",
            "townshipName": "三星鄉",
            "students": 226,
            "status": "正常"
          }
        ]
      },
      {
        "id": "6-wsqs26",
        "geohash": "wsqs26",
        "precision": 6,
        "count": 1,
        "latitude": 24.667799,
        "longitude": 121.653735,
        "bounds": {
          "minLatitude": 24.667799,
          "maxLatitude": 24.667799,
          "minLongitude": 121.653735,
          "maxLongitude": 121.653735
        },
        "topSchools": [
          {
            "id": "024511",
            "name": "縣立三星國中",
            "townshipName": "三星鄉",
            "students": 178,
            "status": "正常"
          }
        ]
      },
      {
        "id": "6-wsqs3d",
        "geohash": "wsqs3d",
        "precision": 6,
        "count": 1,
        "latitude": 24.667974,
        "longitude": 121.713123,
        "bounds": {
          "minLatitude": 24.667974,
          "maxLatitude": 24.667974,
          "minLongitude": 121.713123,
          "maxLongitude": 121.713123
        },
        "topSchools": [
          {
            "id": "024665",
            "name": "縣立大隱國小",
            "townshipName": "三星鄉",
            "students": 174,
            "status": "正常"
          }
        ]
      },
      {
        "id": "6-wsqs3z",
        "geohash": "wsqs3z",
        "precision": 6,
        "count": 1,
        "latitude": 24.692983,
        "longitude": 121.727399,
        "bounds": {
          "minLatitude": 24.692983,
          "maxLatitude": 24.692983,
          "minLongitude": 121.727399,
          "maxLongitude": 121.727399
        },
        "topSchools": [
          {
            "id": "024662",
            "name": "縣立大洲國小",
            "townshipName": "三星鄉",
            "students": 137,
            "status": "正常"
          }
        ]
      },
      {
        "id": "6-wsqkr3",
        "geohash": "wsqkr3",
        "precision": 6,
        "count": 1,
        "latitude": 24.660762,
        "longitude": 121.618554,
        "bounds": {
          "minLatitude": 24.660762,
          "maxLatitude": 24.660762,
          "minLongitude": 121.618554,
          "maxLongitude": 121.618554
        },
        "topSchools": [
          {
            "id": "024663",
            "name": "縣立憲明國小",
            "townshipName": "三星鄉",
            "students": 71,
            "status": "正常"
          }
        ]
      },
      {
        "id": "6-wsqs3h",
        "geohash": "wsqs3h",
        "precision": 6,
        "count": 1,
        "latitude": 24.679866,
        "longitude": 121.688528,
        "bounds": {
          "minLatitude": 24.679866,
          "maxLatitude": 24.679866,
          "minLongitude": 121.688528,
          "maxLongitude": 121.688528
        },
        "topSchools": [
          {
            "id": "024664",
            "name": "縣立萬富國小",
            "townshipName": "三星鄉",
            "students": 70,
            "status": "正常"
          }
        ]
      },
      {
        "id": "6-wsq771",
        "geohash": "wsq771",
        "precision": 6,
        "count": 1,
        "latitude": 24.488407,
        "longitude": 121.426676,
        "bounds": {
          "minLatitude": 24.488407,
          "maxLatitude": 24.488407,
          "minLongitude": 121.426676,
          "maxLongitude": 121.426676
        },
        "topSchools": [
          {
            "id": "024668",
            "name": "縣立四季國小",
            "townshipName": "大同鄉",
            "students": 97,
            "status": "正常"
          }
        ]
      },
      {
        "id": "6-wsqkrk",
        "geohash": "wsqkrk",
        "precision": 6,
        "count": 1,
        "latitude": 24.678263,
        "longitude": 121.608987,
        "bounds": {
          "minLatitude": 24.678263,
          "maxLatitude": 24.678263,
          "minLongitude": 121.608987,
          "maxLongitude": 121.608987
        },
        "topSchools": [
          {
            "id": "024670",
            "name": "縣立大同國小",
            "townshipName": "大同鄉",
            "students": 67,
            "status": "正常"
          }
        ]
      },
      {
        "id": "6-wsqecp",
        "geohash": "wsqecp",
        "precision": 6,
        "count": 1,
        "latitude": 24.609168,
        "longitude": 121.687154,
        "bounds": {
          "minLatitude": 24.609168,
          "maxLatitude": 24.609168,
          "minLongitude": 121.687154,
          "maxLongitude": 121.687154
        },
        "topSchools": [
          {
            "id": "024671",
            "name": "縣立寒溪國小",
            "townshipName": "大同鄉",
            "students": 59,
            "status": "正常"
          }
        ]
      },
      {
        "id": "6-wsq740",
        "geohash": "wsq740",
        "precision": 6,
        "count": 1,
        "latitude": 24.437308,
        "longitude": 121.380617,
        "bounds": {
          "minLatitude": 24.437308,
          "maxLatitude": 24.437308,
          "minLongitude": 121.380617,
          "maxLongitude": 121.380617
        },
        "topSchools": [
          {
            "id": "024669",
            "name": "縣立南山國小",
            "townshipName": "大同鄉",
            "students": 46,
            "status": "正常"
          }
        ]
      },
      {
        "id": "6-wsq7u3",
        "geohash": "wsq7u3",
        "precision": 6,
        "count": 1,
        "latitude": 24.574263,
        "longitude": 121.47793,
        "bounds": {
          "minLatitude": 24.574263,
          "maxLatitude": 24.574263,
          "minLongitude": 121.47793,
          "maxLongitude": 121.47793
        },
        "topSchools": [
          {
            "id": "024523",
            "name": "縣立大同國中",
            "townshipName": "大同鄉",
            "students": 36,
            "status": "正常"
          }
        ]
      },
      {
        "id": "6-wsqs7w",
        "geohash": "wsqs7w",
        "precision": 6,
        "count": 1,
        "latitude": 24.686699,
        "longitude": 121.799128,
        "bounds": {
          "minLatitude": 24.686699,
          "maxLatitude": 24.686699,
          "minLongitude": 121.799128,
          "maxLongitude": 121.799128
        },
        "topSchools": [
          {
            "id": "024649",
            "name": "縣立五結國小",
            "townshipName": "五結鄉",
            "students": 530,
            "status": "正常"
          }
        ]
      },
      {
        "id": "6-wsqsdc",
        "geohash": "wsqsdc",
        "precision": 6,
        "count": 1,
        "latitude": 24.706814,
        "longitude": 121.770248,
        "bounds": {
          "minLatitude": 24.706814,
          "maxLatitude": 24.706814,
          "minLongitude": 121.770248,
          "maxLongitude": 121.770248
        },
        "topSchools": [
          {
            "id": "024650",
            "name": "縣立學進國小",
            "townshipName": "五結鄉",
            "students": 261,
            "status": "正常"
          }
        ]
      },
      {
        "id": "6-wsqs7x",
        "geohash": "wsqs7x",
        "precision": 6,
        "count": 1,
        "latitude": 24.696306,
        "longitude": 121.800241,
        "bounds": {
          "minLatitude": 24.696306,
          "maxLatitude": 24.696306,
          "minLongitude": 121.800241,
          "maxLongitude": 121.800241
        },
        "topSchools": [
          {
            "id": "024516",
            "name": "縣立五結國中",
            "townshipName": "五結鄉",
            "students": 243,
            "status": "正常"
          }
        ]
      },
      {
        "id": "6-wsqs6z",
        "geohash": "wsqs6z",
        "precision": 6,
        "count": 1,
        "latitude": 24.692576,
        "longitude": 121.772431,
        "bounds": {
          "minLatitude": 24.692576,
          "maxLatitude": 24.692576,
          "minLongitude": 121.772431,
          "maxLongitude": 121.772431
        },
        "topSchools": [
          {
            "id": "024651",
            "name": "縣立中興國小",
            "townshipName": "五結鄉",
            "students": 93,
            "status": "正常"
          }
        ]
      },
      {
        "id": "6-wsqsdb",
        "geohash": "wsqsdb",
        "precision": 6,
        "count": 1,
        "latitude": 24.699288,
        "longitude": 121.770831,
        "bounds": {
          "minLatitude": 24.699288,
          "maxLatitude": 24.699288,
          "minLongitude": 121.770831,
          "maxLongitude": 121.770831
        },
        "topSchools": [
          {
            "id": "024517",
            "name": "縣立興中國中",
            "townshipName": "五結鄉",
            "students": 90,
            "status": "正常"
          }
        ]
      },
      {
        "id": "6-wsqs7z",
        "geohash": "wsqs7z",
        "precision": 6,
        "count": 1,
        "latitude": 24.696499,
        "longitude": 121.812278,
        "bounds": {
          "minLatitude": 24.696499,
          "maxLatitude": 24.696499,
          "minLongitude": 121.812278,
          "maxLongitude": 121.812278
        },
        "topSchools": [
          {
            "id": "024653",
            "name": "縣立孝威國小",
            "townshipName": "五結鄉",
            "students": 86,
            "status": "正常"
          }
        ]
      },
      {
        "id": "6-wsqs5e",
        "geohash": "wsqs5e",
        "precision": 6,
        "count": 1,
        "latitude": 24.626452,
        "longitude": 121.794807,
        "bounds": {
          "minLatitude": 24.626452,
          "maxLatitude": 24.626452,
          "minLongitude": 121.794807,
          "maxLongitude": 121.794807
        },
        "topSchools": [
          {
            "id": "024325",
            "name": "縣立慈心華德福實中",
            "townshipName": "冬山鄉",
            "students": 844,
            "status": "正常"
          }
        ]
      },
      {
        "id": "6-wsqs6c",
        "geohash": "wsqs6c",
        "precision": 6,
        "count": 1,
        "latitude": 24.663858,
        "longitude": 121.763434,
        "bounds": {
          "minLatitude": 24.663858,
          "maxLatitude": 24.663858,
          "minLongitude": 121.763434,
          "maxLongitude": 121.763434
        },
        "topSchools": [
          {
            "id": "024701",
            "name": "縣立清溝國小",
            "townshipName": "冬山鄉",
            "students": 524,
            "status": "正常"
          }
        ]
      },
      {
        "id": "6-wsqs1s",
        "geohash": "wsqs1s",
        "precision": 6,
        "count": 1,
        "latitude": 24.634085,
        "longitude": 121.716432,
        "bounds": {
          "minLatitude": 24.634085,
          "maxLatitude": 24.634085,
          "minLongitude": 121.716432,
          "maxLongitude": 121.716432
        },
        "topSchools": [
          {
            "id": "024659",
            "name": "縣立大進國小",
            "townshipName": "冬山鄉",
            "students": 74,
            "status": "正常"
          }
        ]
      },
      {
        "id": "6-wsqs5g",
        "geohash": "wsqs5g",
        "precision": 6,
        "count": 1,
        "latitude": 24.629094,
        "longitude": 121.806787,
        "bounds": {
          "minLatitude": 24.629094,
          "maxLatitude": 24.629094,
          "minLongitude": 121.806787,
          "maxLongitude": 121.806787
        },
        "topSchools": [
          {
            "id": "024655",
            "name": "縣立東興國小",
            "townshipName": "冬山鄉",
            "students": 71,
            "status": "正常"
          }
        ]
      },
      {
        "id": "6-wsqs79",
        "geohash": "wsqs79",
        "precision": 6,
        "count": 1,
        "latitude": 24.661573,
        "longitude": 121.798791,
        "bounds": {
          "minLatitude": 24.661573,
          "maxLatitude": 24.661573,
          "minLongitude": 121.798791,
          "maxLongitude": 121.798791
        },
        "topSchools": [
          {
            "id": "024657",
            "name": "縣立武淵國小",
            "townshipName": "冬山鄉",
            "students": 71,
            "status": "正常"
          }
        ]
      },
      {
        "id": "6-wsqs66",
        "geohash": "wsqs66",
        "precision": 6,
        "count": 1,
        "latitude": 24.665421,
        "longitude": 121.742754,
        "bounds": {
          "minLatitude": 24.665421,
          "maxLatitude": 24.665421,
          "minLongitude": 121.742754,
          "maxLongitude": 121.742754
        },
        "topSchools": [
          {
            "id": "024658",
            "name": "縣立廣興國小",
            "townshipName": "冬山鄉",
            "students": 63,
            "status": "正常"
          }
        ]
      },
      {
        "id": "6-wsqs6h",
        "geohash": "wsqs6h",
        "precision": 6,
        "count": 1,
        "latitude": 24.67633,
        "longitude": 121.731518,
        "bounds": {
          "minLatitude": 24.67633,
          "maxLatitude": 24.67633,
          "minLongitude": 121.731518,
          "maxLongitude": 121.731518
        },
        "topSchools": [
          {
            "id": "024660",
            "name": "縣立柯林國小",
            "townshipName": "冬山鄉",
            "students": 46,
            "status": "正常"
          }
        ]
      },
      {
        "id": "6-wsqsg7",
        "geohash": "wsqsg7",
        "precision": 6,
        "count": 1,
        "latitude": 24.75997,
        "longitude": 121.793615,
        "bounds": {
          "minLatitude": 24.75997,
          "maxLatitude": 24.75997,
          "minLongitude": 121.793615,
          "maxLongitude": 121.793615
        },
        "topSchools": [
          {
            "id": "021310",
            "name": "私立中道高中",
            "townshipName": "壯圍鄉",
            "students": 980,
            "status": "正常"
          }
        ]
      },
      {
        "id": "6-wsqsgt",
        "geohash": "wsqsgt",
        "precision": 6,
        "count": 1,
        "latitude": 24.771482,
        "longitude": 121.798239,
        "bounds": {
          "minLatitude": 24.771482,
          "maxLatitude": 24.771482,
          "minLongitude": 121.798239,
          "maxLongitude": 121.798239
        },
        "topSchools": [
          {
            "id": "024644",
            "name": "縣立古亭國小",
            "townshipName": "壯圍鄉",
            "students": 327,
            "status": "正常"
          }
        ]
      },
      {
        "id": "6-wsqsg3",
        "geohash": "wsqsg3",
        "precision": 6,
        "count": 1,
        "latitude": 24.749319,
        "longitude": 121.788511,
        "bounds": {
          "minLatitude": 24.749319,
          "maxLatitude": 24.749319,
          "minLongitude": 121.788511,
          "maxLongitude": 121.788511
        },
        "topSchools": [
          {
            "id": "024521",
            "name": "縣立壯圍國中",
            "townshipName": "壯圍鄉",
            "students": 315,
            "status": "正常"
          }
        ]
      },
      {
        "id": "6-wsqsg2",
        "geohash": "wsqsg2",
        "precision": 6,
        "count": 1,
        "latitude": 24.74358,
        "longitude": 121.790153,
        "bounds": {
          "minLatitude": 24.74358,
          "maxLatitude": 24.74358,
          "minLongitude": 121.790153,
          "maxLongitude": 121.790153
        },
        "topSchools": [
          {
            "id": "024643",
            "name": "縣立壯圍國小",
            "townshipName": "壯圍鄉",
            "students": 219,
            "status": "正常"
          }
        ]
      },
      {
        "id": "6-wsqses",
        "geohash": "wsqses",
        "precision": 6,
        "count": 1,
        "latitude": 24.722599,
        "longitude": 121.799976,
        "bounds": {
          "minLatitude": 24.722599,
          "maxLatitude": 24.722599,
          "minLongitude": 121.799976,
          "maxLongitude": 121.799976
        },
        "topSchools": [
          {
            "id": "024648",
            "name": "縣立新南國小",
            "townshipName": "壯圍鄉",
            "students": 72,
            "status": "正常"
          }
        ]
      },
      {
        "id": "6-wsqssp",
        "geohash": "wsqssp",
        "precision": 6,
        "count": 1,
        "latitude": 24.735901,
        "longitude": 121.816562,
        "bounds": {
          "minLatitude": 24.735901,
          "maxLatitude": 24.735901,
          "minLongitude": 121.816562,
          "maxLongitude": 121.816562
        },
        "topSchools": [
          {
            "id": "024645",
            "name": "縣立公館國小",
            "townshipName": "壯圍鄉",
            "students": 66,
            "status": "正常"
          }
        ]
      },
      {
        "id": "6-wsqt5g",
        "geohash": "wsqt5g",
        "precision": 6,
        "count": 1,
        "latitude": 24.801749,
        "longitude": 121.814186,
        "bounds": {
          "minLatitude": 24.801749,
          "maxLatitude": 24.801749,
          "minLongitude": 121.814186,
          "maxLongitude": 121.814186
        },
        "topSchools": [
          {
            "id": "024647",
            "name": "縣立大福國小",
            "townshipName": "壯圍鄉",
            "students": 48,
            "status": "正常"
          }
        ]
      },
      {
        "id": "6-wsqsgg",
        "geohash": "wsqsgg",
        "precision": 6,
        "count": 1,
        "latitude": 24.758813,
        "longitude": 121.8147,
        "bounds": {
          "minLatitude": 24.758813,
          "maxLatitude": 24.758813,
          "minLongitude": 121.8147,
          "maxLongitude": 121.8147
        },
        "topSchools": [
          {
            "id": "024646",
            "name": "縣立過嶺國小",
            "townshipName": "壯圍鄉",
            "students": 36,
            "status": "正常"
          }
        ]
      },
      {
        "id": "6-wsqsf2",
        "geohash": "wsqsf2",
        "precision": 6,
        "count": 1,
        "latitude": 24.746213,
        "longitude": 121.747592,
        "bounds": {
          "minLatitude": 24.746213,
          "maxLatitude": 24.746213,
          "minLongitude": 121.747592,
          "maxLongitude": 121.747592
        },
        "topSchools": [
          {
            "id": "0031",
            "name": "國立宜蘭大學",
            "townshipName": "宜蘭市",
            "students": 5447,
            "status": "正常"
          }
        ]
      },
      {
        "id": "6-wsqsff",
        "geohash": "wsqsff",
        "precision": 6,
        "count": 1,
        "latitude": 24.754891,
        "longitude": 121.765496,
        "bounds": {
          "minLatitude": 24.754891,
          "maxLatitude": 24.754891,
          "minLongitude": 121.765496,
          "maxLongitude": 121.765496
        },
        "topSchools": [
          {
            "id": "020403",
            "name": "國立宜蘭高商",
            "townshipName": "宜蘭市",
            "students": 1425,
            "status": "正常"
          }
        ]
      },
      {
        "id": "6-wsqsf8",
        "geohash": "wsqsf8",
        "precision": 6,
        "count": 1,
        "latitude": 24.745056,
        "longitude": 121.753526,
        "bounds": {
          "minLatitude": 24.745056,
          "maxLatitude": 24.745056,
          "minLongitude": 121.753526,
          "maxLongitude": 121.753526
        },
        "topSchools": [
          {
            "id": "020301",
            "name": "國立蘭陽女中",
            "townshipName": "宜蘭市",
            "students": 1392,
            "status": "正常"
          }
        ]
      },
      {
        "id": "6-wsqsft",
        "geohash": "wsqsft",
        "precision": 6,
        "count": 1,
        "latitude": 24.77072,
        "longitude": 121.754645,
        "bounds": {
          "minLatitude": 24.77072,
          "maxLatitude": 24.77072,
          "minLongitude": 121.754645,
          "maxLongitude": 121.754645
        },
        "topSchools": [
          {
            "id": "024604",
            "name": "縣立新生國小",
            "townshipName": "宜蘭市",
            "students": 626,
            "status": "正常"
          }
        ]
      },
      {
        "id": "6-wsqsfe",
        "geohash": "wsqsfe",
        "precision": 6,
        "count": 1,
        "latitude": 24.762005,
        "longitude": 121.758161,
        "bounds": {
          "minLatitude": 24.762005,
          "maxLatitude": 24.762005,
          "minLongitude": 121.758161,
          "maxLongitude": 121.758161
        },
        "topSchools": [
          {
            "id": "024501",
            "name": "縣立宜蘭國中",
            "townshipName": "宜蘭市",
            "students": 507,
            "status": "正常"
          }
        ]
      },
      {
        "id": "6-wsqsdt",
        "geohash": "wsqsdt",
        "precision": 6,
        "count": 1,
        "latitude": 24.725986,
        "longitude": 121.757081,
        "bounds": {
          "minLatitude": 24.725986,
          "maxLatitude": 24.725986,
          "minLongitude": 121.757081,
          "maxLongitude": 121.757081
        },
        "topSchools": [
          {
            "id": "024524",
            "name": "縣立凱旋國中",
            "townshipName": "宜蘭市",
            "students": 502,
            "status": "正常"
          }
        ]
      },
      {
        "id": "6-wsqsdu",
        "geohash": "wsqsdu",
        "precision": 6,
        "count": 1,
        "latitude": 24.724445,
        "longitude": 121.763248,
        "bounds": {
          "minLatitude": 24.724445,
          "maxLatitude": 24.724445,
          "minLongitude": 121.763248,
          "maxLongitude": 121.763248
        },
        "topSchools": [
          {
            "id": "024607",
            "name": "縣立凱旋國小",
            "townshipName": "宜蘭市",
            "students": 479,
            "status": "正常"
          }
        ]
      },
      {
        "id": "6-wsqsdn",
        "geohash": "wsqsdn",
        "precision": 6,
        "count": 1,
        "latitude": 24.733408,
        "longitude": 121.737574,
        "bounds": {
          "minLatitude": 24.733408,
          "maxLatitude": 24.733408,
          "minLongitude": 121.737574,
          "maxLongitude": 121.737574
        },
        "topSchools": [
          {
            "id": "024606",
            "name": "縣立育才國小",
            "townshipName": "宜蘭市",
            "students": 318,
            "status": "正常"
          }
        ]
      },
      {
        "id": "6-wsqsfs",
        "geohash": "wsqsfs",
        "precision": 6,
        "count": 1,
        "latitude": 24.76418,
        "longitude": 121.755443,
        "bounds": {
          "minLatitude": 24.76418,
          "maxLatitude": 24.76418,
          "minLongitude": 121.755443,
          "maxLongitude": 121.755443
        },
        "topSchools": [
          {
            "id": "024603",
            "name": "縣立力行國小",
            "townshipName": "宜蘭市",
            "students": 230,
            "status": "正常"
          }
        ]
      },
      {
        "id": "6-wsqe5r",
        "geohash": "wsqe5r",
        "precision": 6,
        "count": 1,
        "latitude": 24.474069,
        "longitude": 121.784702,
        "bounds": {
          "minLatitude": 24.474069,
          "maxLatitude": 24.474069,
          "minLongitude": 121.784702,
          "maxLongitude": 121.784702
        },
        "topSchools": [
          {
            "id": "024673",
            "name": "縣立碧候國小",
            "townshipName": "南澳鄉",
            "students": 78,
            "status": "正常"
          }
        ]
      },
      {
        "id": "6-wsqd6m",
        "geohash": "wsqd6m",
        "precision": 6,
        "count": 1,
        "latitude": 24.329383,
        "longitude": 121.739578,
        "bounds": {
          "minLatitude": 24.329383,
          "maxLatitude": 24.329383,
          "minLongitude": 121.739578,
          "maxLongitude": 121.739578
        },
        "topSchools": [
          {
            "id": "024675",
            "name": "縣立澳花國小",
            "townshipName": "南澳鄉",
            "students": 73,
            "status": "正常"
          }
        ]
      },
      {
        "id": "6-wsqe5w",
        "geohash": "wsqe5w",
        "precision": 6,
        "count": 1,
        "latitude": 24.467301,
        "longitude": 121.800629,
        "bounds": {
          "minLatitude": 24.467301,
          "maxLatitude": 24.467301,
          "minLongitude": 121.800629,
          "maxLongitude": 121.800629
        },
        "topSchools": [
          {
            "id": "024672",
            "name": "縣立南澳國小",
            "townshipName": "南澳鄉",
            "students": 56,
            "status": "正常"
          }
        ]
      },
      {
        "id": "6-wsqes2",
        "geohash": "wsqes2",
        "precision": 6,
        "count": 1,
        "latitude": 24.521585,
        "longitude": 121.832931,
        "bounds": {
          "minLatitude": 24.521585,
          "maxLatitude": 24.521585,
          "minLongitude": 121.832931,
          "maxLongitude": 121.832931
        },
        "topSchools": [
          {
            "id": "024676",
            "name": "縣立東澳國小",
            "townshipName": "南澳鄉",
            "students": 46,
            "status": "正常"
          }
        ]
      },
      {
        "id": "6-wsqe5n",
        "geohash": "wsqe5n",
        "precision": 6,
        "count": 1,
        "latitude": 24.470885,
        "longitude": 121.777341,
        "bounds": {
          "minLatitude": 24.470885,
          "maxLatitude": 24.470885,
          "minLongitude": 121.777341,
          "maxLongitude": 121.777341
        },
        "topSchools": [
          {
            "id": "024677",
            "name": "縣立金岳國小",
            "townshipName": "南澳鄉",
            "students": 38,
            "status": "正常"
          }
        ]
      },
      {
        "id": "6-wsqe54",
        "geohash": "wsqe54",
        "precision": 6,
        "count": 1,
        "latitude": 24.445607,
        "longitude": 121.778546,
        "bounds": {
          "minLatitude": 24.445607,
          "maxLatitude": 24.445607,
          "minLongitude": 121.778546,
          "maxLongitude": 121.778546
        },
        "topSchools": [
          {
            "id": "024674",
            "name": "縣立武塔國小",
            "townshipName": "南澳鄉",
            "students": 33,
            "status": "正常"
          }
        ]
      },
      {
        "id": "6-wsqdfq",
        "geohash": "wsqdfq",
        "precision": 6,
        "count": 1,
        "latitude": 24.426115,
        "longitude": 121.749136,
        "bounds": {
          "minLatitude": 24.426115,
          "maxLatitude": 24.426115,
          "minLongitude": 121.749136,
          "maxLongitude": 121.749136
        },
        "topSchools": [
          {
            "id": "024678",
            "name": "縣立金洋國小",
            "townshipName": "南澳鄉",
            "students": 31,
            "status": "正常"
          }
        ]
      },
      {
        "id": "6-wsqscw",
        "geohash": "wsqscw",
        "precision": 6,
        "count": 1,
        "latitude": 24.77726,
        "longitude": 121.715353,
        "bounds": {
          "minLatitude": 24.77726,
          "maxLatitude": 24.77726,
          "minLongitude": 121.715353,
          "maxLongitude": 121.715353
        },
        "topSchools": [
          {
            "id": "021301",
            "name": "私立慧燈高中",
            "townshipName": "員山鄉",
            "students": 1496,
            "status": "正常"
          }
        ]
      },
      {
        "id": "6-wsqscb",
        "geohash": "wsqscb",
        "precision": 6,
        "count": 1,
        "latitude": 24.743823,
        "longitude": 121.722404,
        "bounds": {
          "minLatitude": 24.743823,
          "maxLatitude": 24.743823,
          "minLongitude": 121.722404,
          "maxLongitude": 121.722404
        },
        "topSchools": [
          {
            "id": "024634",
            "name": "縣立員山國小",
            "townshipName": "員山鄉",
            "students": 281,
            "status": "正常"
          }
        ]
      },
      {
        "id": "6-wsqsc9",
        "geohash": "wsqsc9",
        "precision": 6,
        "count": 1,
        "latitude": 24.750301,
        "longitude": 121.714343,
        "bounds": {
          "minLatitude": 24.750301,
          "maxLatitude": 24.750301,
          "minLongitude": 121.714343,
          "maxLongitude": 121.714343
        },
        "topSchools": [
          {
            "id": "024519",
            "name": "縣立員山國中",
            "townshipName": "員山鄉",
            "students": 191,
            "status": "正常"
          }
        ]
      },
      {
        "id": "6-wsqsf5",
        "geohash": "wsqsf5",
        "precision": 6,
        "count": 1,
        "latitude": 24.763012,
        "longitude": 121.72889,
        "bounds": {
          "minLatitude": 24.763012,
          "maxLatitude": 24.763012,
          "minLongitude": 121.72889,
          "maxLongitude": 121.72889
        },
        "topSchools": [
          {
            "id": "024637",
            "name": "縣立同樂國小",
            "townshipName": "員山鄉",
            "students": 137,
            "status": "正常"
          }
        ]
      },
      {
        "id": "6-wsqs9u",
        "geohash": "wsqs9u",
        "precision": 6,
        "count": 1,
        "latitude": 24.723565,
        "longitude": 121.724077,
        "bounds": {
          "minLatitude": 24.723565,
          "maxLatitude": 24.723565,
          "minLongitude": 121.724077,
          "maxLongitude": 121.724077
        },
        "topSchools": [
          {
            "id": "024635",
            "name": "縣立深溝國小",
            "townshipName": "員山鄉",
            "students": 100,
            "status": "正常"
          }
        ]
      },
      {
        "id": "6-wsqscq",
        "geohash": "wsqscq",
        "precision": 6,
        "count": 1,
        "latitude": 24.779496,
        "longitude": 121.69916,
        "bounds": {
          "minLatitude": 24.779496,
          "maxLatitude": 24.779496,
          "minLongitude": 121.69916,
          "maxLongitude": 121.69916
        },
        "topSchools": [
          {
            "id": "024638",
            "name": "縣立湖山國小",
            "townshipName": "員山鄉",
            "students": 84,
            "status": "正常"
          }
        ]
      },
      {
        "id": "6-wsqsdk",
        "geohash": "wsqsdk",
        "precision": 6,
        "count": 1,
        "latitude": 24.719829,
        "longitude": 121.743235,
        "bounds": {
          "minLatitude": 24.719829,
          "maxLatitude": 24.719829,
          "minLongitude": 121.743235,
          "maxLongitude": 121.743235
        },
        "topSchools": [
          {
            "id": "024636",
            "name": "縣立七賢國小",
            "townshipName": "員山鄉",
            "students": 83,
            "status": "正常"
          }
        ]
      },
      {
        "id": "6-wsqsc1",
        "geohash": "wsqsc1",
        "precision": 6,
        "count": 1,
        "latitude": 24.748032,
        "longitude": 121.691075,
        "bounds": {
          "minLatitude": 24.748032,
          "maxLatitude": 24.748032,
          "minLongitude": 121.691075,
          "maxLongitude": 121.691075
        },
        "topSchools": [
          {
            "id": "024639",
            "name": "縣立大湖國小",
            "townshipName": "員山鄉",
            "students": 76,
            "status": "正常"
          }
        ]
      },
      {
        "id": "6-wsqtkh",
        "geohash": "wsqtkh",
        "precision": 6,
        "count": 1,
        "latitude": 24.851252,
        "longitude": 121.817125,
        "bounds": {
          "minLatitude": 24.851252,
          "maxLatitude": 24.851252,
          "minLongitude": 121.817125,
          "maxLongitude": 121.817125
        },
        "topSchools": [
          {
            "id": "020409",
            "name": "國立頭城家商",
            "townshipName": "頭城鎮",
            "students": 679,
            "status": "正常"
          }
        ]
      },
      {
        "id": "6-wsqtkq",
        "geohash": "wsqtkq",
        "precision": 6,
        "count": 1,
        "latitude": 24.862833,
        "longitude": 121.827573,
        "bounds": {
          "minLatitude": 24.862833,
          "maxLatitude": 24.862833,
          "minLongitude": 121.827573,
          "maxLongitude": 121.827573
        },
        "topSchools": [
          {
            "id": "024623",
            "name": "縣立頭城國小",
            "townshipName": "頭城鎮",
            "students": 537,
            "status": "正常"
          }
        ]
      },
      {
        "id": "6-wsqtkn",
        "geohash": "wsqtkn",
        "precision": 6,
        "count": 1,
        "latitude": 24.864787,
        "longitude": 121.821266,
        "bounds": {
          "minLatitude": 24.864787,
          "maxLatitude": 24.864787,
          "minLongitude": 121.821266,
          "maxLongitude": 121.821266
        },
        "topSchools": [
          {
            "id": "024507",
            "name": "縣立頭城國中",
            "townshipName": "頭城鎮",
            "students": 391,
            "status": "正常"
          }
        ]
      },
      {
        "id": "6-wsqt7d",
        "geohash": "wsqt7d",
        "precision": 6,
        "count": 1,
        "latitude": 24.843634,
        "longitude": 121.805272,
        "bounds": {
          "minLatitude": 24.843634,
          "maxLatitude": 24.843634,
          "minLongitude": 121.805272,
          "maxLongitude": 121.805272
        },
        "topSchools": [
          {
            "id": "024625",
            "name": "縣立二城國小",
            "townshipName": "頭城鎮",
            "students": 265,
            "status": "正常"
          }
        ]
      },
      {
        "id": "6-wsqtve",
        "geohash": "wsqtve",
        "precision": 6,
        "count": 1,
        "latitude": 24.93552,
        "longitude": 121.886464,
        "bounds": {
          "minLatitude": 24.93552,
          "maxLatitude": 24.93552,
          "minLongitude": 121.886464,
          "maxLongitude": 121.886464
        },
        "topSchools": [
          {
            "id": "024626",
            "name": "縣立大溪國小",
            "townshipName": "頭城鎮",
            "students": 104,
            "status": "正常"
          }
        ]
      },
      {
        "id": "6-wsqthp",
        "geohash": "wsqthp",
        "precision": 6,
        "count": 1,
        "latitude": 24.825139,
        "longitude": 121.820334,
        "bounds": {
          "minLatitude": 24.825139,
          "maxLatitude": 24.825139,
          "minLongitude": 121.820334,
          "maxLongitude": 121.820334
        },
        "topSchools": [
          {
            "id": "024624",
            "name": "縣立竹安國小",
            "townshipName": "頭城鎮",
            "students": 94,
            "status": "正常"
          }
        ]
      },
      {
        "id": "6-wsqttj",
        "geohash": "wsqttj",
        "precision": 6,
        "count": 1,
        "latitude": 24.900758,
        "longitude": 121.862177,
        "bounds": {
          "minLatitude": 24.900758,
          "maxLatitude": 24.900758,
          "minLongitude": 121.862177,
          "maxLongitude": 121.862177
        },
        "topSchools": [
          {
            "id": "024628",
            "name": "縣立梗枋國小",
            "townshipName": "頭城鎮",
            "students": 65,
            "status": "正常"
          }
        ]
      },
      {
        "id": "6-wsqwn9",
        "geohash": "wsqwn9",
        "precision": 6,
        "count": 1,
        "latitude": 24.97061,
        "longitude": 121.92646,
        "bounds": {
          "minLatitude": 24.97061,
          "maxLatitude": 24.97061,
          "minLongitude": 121.92646,
          "maxLongitude": 121.92646
        },
        "topSchools": [
          {
            "id": "024627",
            "name": "縣立大里國小",
            "townshipName": "頭城鎮",
            "students": 63,
            "status": "正常"
          }
        ]
      },
      {
        "id": "6-wsqt1v",
        "geohash": "wsqt1v",
        "precision": 6,
        "count": 1,
        "latitude": 24.81568,
        "longitude": 121.723778,
        "bounds": {
          "minLatitude": 24.81568,
          "maxLatitude": 24.81568,
          "minLongitude": 121.723778,
          "maxLongitude": 121.723778
        },
        "topSchools": [
          {
            "id": "1050",
            "name": "佛光大學",
            "townshipName": "礁溪鄉",
            "students": 2525,
            "status": "正常"
          }
        ]
      },
      {
        "id": "6-wsqt4y",
        "geohash": "wsqt4y",
        "precision": 6,
        "count": 1,
        "latitude": 24.821686,
        "longitude": 121.768455,
        "bounds": {
          "minLatitude": 24.821686,
          "maxLatitude": 24.821686,
          "minLongitude": 121.768455,
          "maxLongitude": 121.768455
        },
        "topSchools": [
          {
            "id": "024629",
            "name": "縣立礁溪國小",
            "townshipName": "礁溪鄉",
            "students": 654,
            "status": "正常"
          }
        ]
      },
      {
        "id": "6-wsqt4v",
        "geohash": "wsqt4v",
        "precision": 6,
        "count": 1,
        "latitude": 24.817113,
        "longitude": 121.767727,
        "bounds": {
          "minLatitude": 24.817113,
          "maxLatitude": 24.817113,
          "minLongitude": 121.767727,
          "maxLongitude": 121.767727
        },
        "topSchools": [
          {
            "id": "024512",
            "name": "縣立礁溪國中",
            "townshipName": "礁溪鄉",
            "students": 330,
            "status": "正常"
          }
        ]
      },
      {
        "id": "6-wsqsfr",
        "geohash": "wsqsfr",
        "precision": 6,
        "count": 1,
        "latitude": 24.779682,
        "longitude": 121.744129,
        "bounds": {
          "minLatitude": 24.779682,
          "maxLatitude": 24.779682,
          "minLongitude": 121.744129,
          "maxLongitude": 121.744129
        },
        "topSchools": [
          {
            "id": "024631",
            "name": "縣立龍潭國小",
            "townshipName": "礁溪鄉",
            "students": 144,
            "status": "正常"
          }
        ]
      },
      {
        "id": "6-wsqt4t",
        "geohash": "wsqt4t",
        "precision": 6,
        "count": 1,
        "latitude": 24.813622,
        "longitude": 121.760124,
        "bounds": {
          "minLatitude": 24.813622,
          "maxLatitude": 24.813622,
          "minLongitude": 121.760124,
          "maxLongitude": 121.760124
        },
        "topSchools": [
          {
            "id": "024633",
            "name": "縣立三民國小",
            "townshipName": "礁溪鄉",
            "students": 142,
            "status": "正常"
          }
        ]
      },
      {
        "id": "6-wsqt53",
        "geohash": "wsqt53",
        "precision": 6,
        "count": 1,
        "latitude": 24.795669,
        "longitude": 121.790386,
        "bounds": {
          "minLatitude": 24.795669,
          "maxLatitude": 24.795669,
          "minLongitude": 121.790386,
          "maxLongitude": 121.790386
        },
        "topSchools": [
          {
            "id": "024632",
            "name": "縣立玉田國小",
            "townshipName": "礁溪鄉",
            "students": 67,
            "status": "正常"
          }
        ]
      },
      {
        "id": "6-wsqs6y",
        "geohash": "wsqs6y",
        "precision": 6,
        "count": 1,
        "latitude": 24.688758,
        "longitude": 121.766277,
        "bounds": {
          "minLatitude": 24.688758,
          "maxLatitude": 24.688758,
          "minLongitude": 121.766277,
          "maxLongitude": 121.766277
        },
        "topSchools": [
          {
            "id": "024614",
            "name": "縣立竹林國小",
            "townshipName": "羅東鎮",
            "students": 548,
            "status": "正常"
          }
        ]
      },
      {
        "id": "6-wsqsh6",
        "geohash": "wsqsh6",
        "precision": 6,
        "count": 1,
        "latitude": 24.621609,
        "longitude": 121.83532,
        "bounds": {
          "minLatitude": 24.621609,
          "maxLatitude": 24.621609,
          "minLongitude": 121.83532,
          "maxLongitude": 121.83532
        },
        "topSchools": [
          {
            "id": "024616",
            "name": "縣立馬賽國小",
            "townshipName": "蘇澳鎮",
            "students": 603,
            "status": "正常"
          }
        ]
      },
      {
        "id": "6-wsqsh3",
        "geohash": "wsqsh3",
        "precision": 6,
        "count": 1,
        "latitude": 24.618377,
        "longitude": 121.833313,
        "bounds": {
          "minLatitude": 24.618377,
          "maxLatitude": 24.618377,
          "minLongitude": 121.833313,
          "maxLongitude": 121.833313
        },
        "topSchools": [
          {
            "id": "024509",
            "name": "縣立文化國中",
            "townshipName": "蘇澳鎮",
            "students": 485,
            "status": "正常"
          }
        ]
      },
      {
        "id": "6-wsqeum",
        "geohash": "wsqeum",
        "precision": 6,
        "count": 1,
        "latitude": 24.596191,
        "longitude": 121.835071,
        "bounds": {
          "minLatitude": 24.596191,
          "maxLatitude": 24.596191,
          "minLongitude": 121.835071,
          "maxLongitude": 121.835071
        },
        "topSchools": [
          {
            "id": "024508",
            "name": "縣立蘇澳國中",
            "townshipName": "蘇澳鎮",
            "students": 182,
            "status": "正常"
          }
        ]
      },
      {
        "id": "6-wsqev4",
        "geohash": "wsqev4",
        "precision": 6,
        "count": 1,
        "latitude": 24.578909,
        "longitude": 121.86839,
        "bounds": {
          "minLatitude": 24.578909,
          "maxLatitude": 24.578909,
          "minLongitude": 121.86839,
          "maxLongitude": 121.86839
        },
        "topSchools": [
          {
            "id": "024620",
            "name": "縣立南安國小",
            "townshipName": "蘇澳鎮",
            "students": 122,
            "status": "正常"
          }
        ]
      },
      {
        "id": "6-wsqshm",
        "geohash": "wsqshm",
        "precision": 6,
        "count": 1,
        "latitude": 24.640116,
        "longitude": 121.832682,
        "bounds": {
          "minLatitude": 24.640116,
          "maxLatitude": 24.640116,
          "minLongitude": 121.832682,
          "maxLongitude": 121.832682
        },
        "topSchools": [
          {
            "id": "024622",
            "name": "縣立育英國小",
            "townshipName": "蘇澳鎮",
            "students": 111,
            "status": "正常"
          }
        ]
      },
      {
        "id": "6-wsqeuu",
        "geohash": "wsqeuu",
        "precision": 6,
        "count": 1,
        "latitude": 24.592277,
        "longitude": 121.853807,
        "bounds": {
          "minLatitude": 24.592277,
          "maxLatitude": 24.592277,
          "minLongitude": 121.853807,
          "maxLongitude": 121.853807
        },
        "topSchools": [
          {
            "id": "024618",
            "name": "縣立士敏國小",
            "townshipName": "蘇澳鎮",
            "students": 75,
            "status": "正常"
          }
        ]
      },
      {
        "id": "6-wsqev1",
        "geohash": "wsqev1",
        "precision": 6,
        "count": 1,
        "latitude": 24.574754,
        "longitude": 121.868495,
        "bounds": {
          "minLatitude": 24.574754,
          "maxLatitude": 24.574754,
          "minLongitude": 121.868495,
          "maxLongitude": 121.868495
        },
        "topSchools": [
          {
            "id": "024510",
            "name": "縣立南安國中",
            "townshipName": "蘇澳鎮",
            "students": 45,
            "status": "正常"
          }
        ]
      },
      {
        "id": "6-wsqeu9",
        "geohash": "wsqeu9",
        "precision": 6,
        "count": 1,
        "latitude": 24.575679,
        "longitude": 121.843918,
        "bounds": {
          "minLatitude": 24.575679,
          "maxLatitude": 24.575679,
          "minLongitude": 121.843918,
          "maxLongitude": 121.843918
        },
        "topSchools": [
          {
            "id": "024619",
            "name": "縣立永樂國小",
            "townshipName": "蘇澳鎮",
            "students": 40,
            "status": "正常"
          }
        ]
      }
    ],
    "7": [
      {
        "id": "7-wsqs95f",
        "geohash": "wsqs95f",
        "precision": 7,
        "count": 2,
        "latitude": 24.717997,
        "longitude": 121.687826,
        "bounds": {
          "minLatitude": 24.717997,
          "maxLatitude": 24.717997,
          "minLongitude": 121.687826,
          "maxLongitude": 121.687826
        },
        "topSchools": [
          {
            "id": "024640",
            "name": "縣立內城國(中)小",
            "townshipName": "員山鄉",
            "students": 120,
            "status": "正常"
          },
          {
            "id": "024520",
            "name": "縣立內城國中(小)",
            "townshipName": "員山鄉",
            "students": 84,
            "status": "正常"
          }
        ]
      },
      {
        "id": "7-wsqtkjd",
        "geohash": "wsqtkjd",
        "precision": 7,
        "count": 2,
        "latitude": 24.860532,
        "longitude": 121.819901,
        "bounds": {
          "minLatitude": 24.860532,
          "maxLatitude": 24.860532,
          "minLongitude": 121.819901,
          "maxLongitude": 121.819901
        },
        "topSchools": [
          {
            "id": "024698",
            "name": "縣立人文國(中)小",
            "townshipName": "頭城鎮",
            "students": 119,
            "status": "正常"
          },
          {
            "id": "024526",
            "name": "縣立人文國中(小)",
            "townshipName": "頭城鎮",
            "students": 71,
            "status": "正常"
          }
        ]
      },
      {
        "id": "7-wsqshbf",
        "geohash": "wsqshbf",
        "precision": 7,
        "count": 2,
        "latitude": 24.614055,
        "longitude": 121.853319,
        "bounds": {
          "minLatitude": 24.614055,
          "maxLatitude": 24.614055,
          "minLongitude": 121.853319,
          "maxLongitude": 121.853319
        },
        "topSchools": [
          {
            "id": "024621",
            "name": "縣立岳明國(中)小",
            "townshipName": "蘇澳鎮",
            "students": 203,
            "status": "正常"
          },
          {
            "id": "024527",
            "name": "縣立岳明國中(小)",
            "townshipName": "蘇澳鎮",
            "students": 64,
            "status": "正常"
          }
        ]
      },
      {
        "id": "7-wsqs36j",
        "geohash": "wsqs36j",
        "precision": 7,
        "count": 1,
        "latitude": 24.66501,
        "longitude": 121.702992,
        "bounds": {
          "minLatitude": 24.66501,
          "maxLatitude": 24.66501,
          "minLongitude": 121.702992,
          "maxLongitude": 121.702992
        },
        "topSchools": [
          {
            "id": "1291",
            "name": "聖母醫護管理專科學校",
            "townshipName": "三星鄉",
            "students": 1416,
            "status": "正常"
          }
        ]
      },
      {
        "id": "7-wsqs24r",
        "geohash": "wsqs24r",
        "precision": 7,
        "count": 1,
        "latitude": 24.666279,
        "longitude": 121.650793,
        "bounds": {
          "minLatitude": 24.666279,
          "maxLatitude": 24.666279,
          "minLongitude": 121.650793,
          "maxLongitude": 121.650793
        },
        "topSchools": [
          {
            "id": "024661",
            "name": "縣立三星國小",
            "townshipName": "三星鄉",
            "students": 226,
            "status": "正常"
          }
        ]
      },
      {
        "id": "7-wsqs269",
        "geohash": "wsqs269",
        "precision": 7,
        "count": 1,
        "latitude": 24.667799,
        "longitude": 121.653735,
        "bounds": {
          "minLatitude": 24.667799,
          "maxLatitude": 24.667799,
          "minLongitude": 121.653735,
          "maxLongitude": 121.653735
        },
        "topSchools": [
          {
            "id": "024511",
            "name": "縣立三星國中",
            "townshipName": "三星鄉",
            "students": 178,
            "status": "正常"
          }
        ]
      },
      {
        "id": "7-wsqs3ds",
        "geohash": "wsqs3ds",
        "precision": 7,
        "count": 1,
        "latitude": 24.667974,
        "longitude": 121.713123,
        "bounds": {
          "minLatitude": 24.667974,
          "maxLatitude": 24.667974,
          "minLongitude": 121.713123,
          "maxLongitude": 121.713123
        },
        "topSchools": [
          {
            "id": "024665",
            "name": "縣立大隱國小",
            "townshipName": "三星鄉",
            "students": 174,
            "status": "正常"
          }
        ]
      },
      {
        "id": "7-wsqs3zp",
        "geohash": "wsqs3zp",
        "precision": 7,
        "count": 1,
        "latitude": 24.692983,
        "longitude": 121.727399,
        "bounds": {
          "minLatitude": 24.692983,
          "maxLatitude": 24.692983,
          "minLongitude": 121.727399,
          "maxLongitude": 121.727399
        },
        "topSchools": [
          {
            "id": "024662",
            "name": "縣立大洲國小",
            "townshipName": "三星鄉",
            "students": 137,
            "status": "正常"
          }
        ]
      },
      {
        "id": "7-wsqkr3r",
        "geohash": "wsqkr3r",
        "precision": 7,
        "count": 1,
        "latitude": 24.660762,
        "longitude": 121.618554,
        "bounds": {
          "minLatitude": 24.660762,
          "maxLatitude": 24.660762,
          "minLongitude": 121.618554,
          "maxLongitude": 121.618554
        },
        "topSchools": [
          {
            "id": "024663",
            "name": "縣立憲明國小",
            "townshipName": "三星鄉",
            "students": 71,
            "status": "正常"
          }
        ]
      },
      {
        "id": "7-wsqs3hf",
        "geohash": "wsqs3hf",
        "precision": 7,
        "count": 1,
        "latitude": 24.679866,
        "longitude": 121.688528,
        "bounds": {
          "minLatitude": 24.679866,
          "maxLatitude": 24.679866,
          "minLongitude": 121.688528,
          "maxLongitude": 121.688528
        },
        "topSchools": [
          {
            "id": "024664",
            "name": "縣立萬富國小",
            "townshipName": "三星鄉",
            "students": 70,
            "status": "正常"
          }
        ]
      },
      {
        "id": "7-wsq771u",
        "geohash": "wsq771u",
        "precision": 7,
        "count": 1,
        "latitude": 24.488407,
        "longitude": 121.426676,
        "bounds": {
          "minLatitude": 24.488407,
          "maxLatitude": 24.488407,
          "minLongitude": 121.426676,
          "maxLongitude": 121.426676
        },
        "topSchools": [
          {
            "id": "024668",
            "name": "縣立四季國小",
            "townshipName": "大同鄉",
            "students": 97,
            "status": "正常"
          }
        ]
      },
      {
        "id": "7-wsqkrk8",
        "geohash": "wsqkrk8",
        "precision": 7,
        "count": 1,
        "latitude": 24.678263,
        "longitude": 121.608987,
        "bounds": {
          "minLatitude": 24.678263,
          "maxLatitude": 24.678263,
          "minLongitude": 121.608987,
          "maxLongitude": 121.608987
        },
        "topSchools": [
          {
            "id": "024670",
            "name": "縣立大同國小",
            "townshipName": "大同鄉",
            "students": 67,
            "status": "正常"
          }
        ]
      },
      {
        "id": "7-wsqecpc",
        "geohash": "wsqecpc",
        "precision": 7,
        "count": 1,
        "latitude": 24.609168,
        "longitude": 121.687154,
        "bounds": {
          "minLatitude": 24.609168,
          "maxLatitude": 24.609168,
          "minLongitude": 121.687154,
          "maxLongitude": 121.687154
        },
        "topSchools": [
          {
            "id": "024671",
            "name": "縣立寒溪國小",
            "townshipName": "大同鄉",
            "students": 59,
            "status": "正常"
          }
        ]
      },
      {
        "id": "7-wsq740d",
        "geohash": "wsq740d",
        "precision": 7,
        "count": 1,
        "latitude": 24.437308,
        "longitude": 121.380617,
        "bounds": {
          "minLatitude": 24.437308,
          "maxLatitude": 24.437308,
          "minLongitude": 121.380617,
          "maxLongitude": 121.380617
        },
        "topSchools": [
          {
            "id": "024669",
            "name": "縣立南山國小",
            "townshipName": "大同鄉",
            "students": 46,
            "status": "正常"
          }
        ]
      },
      {
        "id": "7-wsq7u39",
        "geohash": "wsq7u39",
        "precision": 7,
        "count": 1,
        "latitude": 24.574263,
        "longitude": 121.47793,
        "bounds": {
          "minLatitude": 24.574263,
          "maxLatitude": 24.574263,
          "minLongitude": 121.47793,
          "maxLongitude": 121.47793
        },
        "topSchools": [
          {
            "id": "024523",
            "name": "縣立大同國中",
            "townshipName": "大同鄉",
            "students": 36,
            "status": "正常"
          }
        ]
      },
      {
        "id": "7-wsqs7w5",
        "geohash": "wsqs7w5",
        "precision": 7,
        "count": 1,
        "latitude": 24.686699,
        "longitude": 121.799128,
        "bounds": {
          "minLatitude": 24.686699,
          "maxLatitude": 24.686699,
          "minLongitude": 121.799128,
          "maxLongitude": 121.799128
        },
        "topSchools": [
          {
            "id": "024649",
            "name": "縣立五結國小",
            "townshipName": "五結鄉",
            "students": 530,
            "status": "正常"
          }
        ]
      },
      {
        "id": "7-wsqsk60",
        "geohash": "wsqsk60",
        "precision": 7,
        "count": 1,
        "latitude": 24.665479,
        "longitude": 121.827667,
        "bounds": {
          "minLatitude": 24.665479,
          "maxLatitude": 24.665479,
          "minLongitude": 121.827667,
          "maxLongitude": 121.827667
        },
        "topSchools": [
          {
            "id": "024652",
            "name": "縣立利澤國小",
            "townshipName": "五結鄉",
            "students": 277,
            "status": "正常"
          }
        ]
      },
      {
        "id": "7-wsqsdcw",
        "geohash": "wsqsdcw",
        "precision": 7,
        "count": 1,
        "latitude": 24.706814,
        "longitude": 121.770248,
        "bounds": {
          "minLatitude": 24.706814,
          "maxLatitude": 24.706814,
          "minLongitude": 121.770248,
          "maxLongitude": 121.770248
        },
        "topSchools": [
          {
            "id": "024650",
            "name": "縣立學進國小",
            "townshipName": "五結鄉",
            "students": 261,
            "status": "正常"
          }
        ]
      },
      {
        "id": "7-wsqs7xu",
        "geohash": "wsqs7xu",
        "precision": 7,
        "count": 1,
        "latitude": 24.696306,
        "longitude": 121.800241,
        "bounds": {
          "minLatitude": 24.696306,
          "maxLatitude": 24.696306,
          "minLongitude": 121.800241,
          "maxLongitude": 121.800241
        },
        "topSchools": [
          {
            "id": "024516",
            "name": "縣立五結國中",
            "townshipName": "五結鄉",
            "students": 243,
            "status": "正常"
          }
        ]
      },
      {
        "id": "7-wsqsk63",
        "geohash": "wsqsk63",
        "precision": 7,
        "count": 1,
        "latitude": 24.665808,
        "longitude": 121.829166,
        "bounds": {
          "minLatitude": 24.665808,
          "maxLatitude": 24.665808,
          "minLongitude": 121.829166,
          "maxLongitude": 121.829166
        },
        "topSchools": [
          {
            "id": "024518",
            "name": "縣立利澤國中",
            "townshipName": "五結鄉",
            "students": 105,
            "status": "正常"
          }
        ]
      },
      {
        "id": "7-wsqs6zp",
        "geohash": "wsqs6zp",
        "precision": 7,
        "count": 1,
        "latitude": 24.692576,
        "longitude": 121.772431,
        "bounds": {
          "minLatitude": 24.692576,
          "maxLatitude": 24.692576,
          "minLongitude": 121.772431,
          "maxLongitude": 121.772431
        },
        "topSchools": [
          {
            "id": "024651",
            "name": "縣立中興國小",
            "townshipName": "五結鄉",
            "students": 93,
            "status": "正常"
          }
        ]
      },
      {
        "id": "7-wsqsdbq",
        "geohash": "wsqsdbq",
        "precision": 7,
        "count": 1,
        "latitude": 24.699288,
        "longitude": 121.770831,
        "bounds": {
          "minLatitude": 24.699288,
          "maxLatitude": 24.699288,
          "minLongitude": 121.770831,
          "maxLongitude": 121.770831
        },
        "topSchools": [
          {
            "id": "024517",
            "name": "縣立興中國中",
            "townshipName": "五結鄉",
            "students": 90,
            "status": "正常"
          }
        ]
      },
      {
        "id": "7-wsqs7zu",
        "geohash": "wsqs7zu",
        "precision": 7,
        "count": 1,
        "latitude": 24.696499,
        "longitude": 121.812278,
        "bounds": {
          "minLatitude": 24.696499,
          "maxLatitude": 24.696499,
          "minLongitude": 121.812278,
          "maxLongitude": 121.812278
        },
        "topSchools": [
          {
            "id": "024653",
            "name": "縣立孝威國小",
            "townshipName": "五結鄉",
            "students": 86,
            "status": "正常"
          }
        ]
      },
      {
        "id": "7-wsqs6e0",
        "geohash": "wsqs6e0",
        "precision": 7,
        "count": 1,
        "latitude": 24.670271,
        "longitude": 121.751072,
        "bounds": {
          "minLatitude": 24.670271,
          "maxLatitude": 24.670271,
          "minLongitude": 121.751072,
          "maxLongitude": 121.751072
        },