{
  "generatedAt": "2026-03-07T15:15:16.040Z",
  "county": {
    "id": "臺中市",
    "name": "臺中市",
    "shortLabel": "臺中",
    "region": "中部"
  },
  "precisions": {
    "5": [
      {
        "id": "5-wsmc6",
        "geohash": "wsmc6",
        "precision": 5,
        "count": 2,
        "latitude": 24.149655,
        "longitude": 120.685263,
        "bounds": {
          "minLatitude": 24.14869,
          "maxLatitude": 24.15062,
          "minLongitude": 120.682909,
          "maxLongitude": 120.687618
        },
        "topSchools": [
          {
            "id": "0050",
            "name": "國立臺中科技大學",
            "townshipName": "北區",
            "students": 15762,
            "status": "正常"
          },
          {
            "id": "0049",
            "name": "國立臺灣體育運動大學",
            "townshipName": "北區",
            "students": 3090,
            "status": "正常"
          }
        ]
      },
      {
        "id": "5-wsmc7",
        "geohash": "wsmc7",
        "precision": 5,
        "count": 1,
        "latitude": 24.143984,
        "longitude": 120.73193,
        "bounds": {
          "minLatitude": 24.143984,
          "maxLatitude": 24.143984,
          "minLongitude": 120.73193,
          "maxLongitude": 120.73193
        },
        "topSchools": [
          {
            "id": "0043",
            "name": "國立勤益科技大學",
            "townshipName": "太平區",
            "students": 12510,
            "status": "正常"
          }
        ]
      },
      {
        "id": "5-wsmc3",
        "geohash": "wsmc3",
        "precision": 5,
        "count": 1,
        "latitude": 24.142653,
        "longitude": 120.672154,
        "bounds": {
          "minLatitude": 24.142653,
          "maxLatitude": 24.142653,
          "minLongitude": 120.672154,
          "maxLongitude": 120.672154
        },
        "topSchools": [
          {
            "id": "0039",
            "name": "國立臺中教育大學",
            "townshipName": "西區",
            "students": 5130,
            "status": "正常"
          }
        ]
      },
      {
        "id": "5-wsmc4",
        "geohash": "wsmc4",
        "precision": 5,
        "count": 1,
        "latitude": 24.122122,
        "longitude": 120.675551,
        "bounds": {
          "minLatitude": 24.122122,
          "maxLatitude": 24.122122,
          "minLongitude": 120.675551,
          "maxLongitude": 120.675551
        },
        "topSchools": [
          {
            "id": "0006",
            "name": "國立中興大學",
            "townshipName": "南區",
            "students": 15845,
            "status": "正常"
          }
        ]
      }
    ],
    "6": [
      {
        "id": "6-wsmc77",
        "geohash": "wsmc77",
        "precision": 6,
        "count": 1,
        "latitude": 24.143984,
        "longitude": 120.73193,
        "bounds": {
          "minLatitude": 24.143984,
          "maxLatitude": 24.143984,
          "minLongitude": 120.73193,
          "maxLongitude": 120.73193
        },
        "topSchools": [
          {
            "id": "0043",
            "name": "國立勤益科技大學",
            "townshipName": "太平區",
            "students": 12510,
            "status": "正常"
          }
        ]
      },
      {
        "id": "6-wsmc6h",
        "geohash": "wsmc6h",
        "precision": 6,
        "count": 1,
        "latitude": 24.15062,
        "longitude": 120.682909,
        "bounds": {
          "minLatitude": 24.15062,
          "maxLatitude": 24.15062,
          "minLongitude": 120.682909,
          "maxLongitude": 120.682909
        },
        "topSchools": [
          {
            "id": "0050",
            "name": "國立臺中科技大學",
            "townshipName": "北區",
            "students": 15762,
            "status": "正常"
          }
        ]
      },
      {
        "id": "6-wsmc6k",
        "geohash": "wsmc6k",
        "precision": 6,
        "count": 1,
        "latitude": 24.14869,
        "longitude": 120.687618,
        "bounds": {
          "minLatitude": 24.14869,
          "maxLatitude": 24.14869,
          "minLongitude": 120.687618,
          "maxLongitude": 120.687618
        },
        "topSchools": [
          {
            "id": "0049",
            "name": "國立臺灣體育運動大學",
            "townshipName": "北區",
            "students": 3090,
            "status": "正常"
          }
        ]
      },
      {
        "id": "6-wsmc3g",
        "geohash": "wsmc3g",
        "precision": 6,
        "count": 1,
        "latitude": 24.142653,
        "longitude": 120.672154,
        "bounds": {
          "minLatitude": 24.142653,
          "maxLatitude": 24.142653,
          "minLongitude": 120.672154,
          "maxLongitude": 120.672154
        },
        "topSchools": [
          {
            "id": "0039",
            "name": "國立臺中教育大學",
            "townshipName": "西區",
            "students": 5130,
            "status": "正常"
          }
        ]
      },
      {
        "id": "6-wsmc4p",
        "geohash": "wsmc4p",
        "precision": 6,
        "count": 1,
        "latitude": 24.122122,
        "longitude": 120.675551,
        "bounds": {
          "minLatitude": 24.122122,
          "maxLatitude": 24.122122,
          "minLongitude": 120.675551,
          "maxLongitude": 120.675551
        },
        "topSchools": [
          {
            "id": "0006",
            "name": "國立中興大學",
            "townshipName": "南區",
            "students": 15845,
            "status": "正常"
          }
        ]
      }
    ],
    "7": [
      {
        "id": "7-wsmc776",
        "geohash": "wsmc776",
        "precision": 7,
        "count": 1,
        "latitude": 24.143984,
        "longitude": 120.73193,
        "bounds": {
          "minLatitude": 24.143984,
          "maxLatitude": 24.143984,
          "minLongitude": 120.73193,
          "maxLongitude": 120.73193
        },
        "topSchools": [
          {
            "id": "0043",
            "name": "國立勤益科技大學",
            "townshipName": "太平區",
            "students": 12510,
            "status": "正常"
          }
        ]
      },
      {
        "id": "7-wsmc6hq",
        "geohash": "wsmc6hq",
        "precision": 7,
        "count": 1,
        "latitude": 24.15062,
        "longitude": 120.682909,
        "bounds": {
          "minLatitude": 24.15062,
          "maxLatitude": 24.15062,
          "minLongitude": 120.682909,
          "maxLongitude": 120.682909
        },
        "topSchools": [
          {
            "id": "0050",
            "name": "國立臺中科技大學",
            "townshipName": "北區",
            "students": 15762,
            "status": "正常"
          }
        ]
      },
      {
        "id": "7-wsmc6k4",
        "geohash": "wsmc6k4",
        "precision": 7,
        "count": 1,
        "latitude": 24.14869,
        "longitude": 120.687618,
        "bounds": {
          "minLatitude": 24.14869,
          "maxLatitude": 24.14869,
          "minLongitude": 120.687618,
          "maxLongitude": 120.687618
        },
        "topSchools": [
          {
            "id": "0049",
            "name": "國立臺灣體育運動大學",
            "townshipName": "北區",
            "students": 3090,
            "status": "正常"
          }
        ]
      },
      {
        "id": "7-wsmc3gn",
        "geohash": "wsmc3gn",
        "precision": 7,
        "count": 1,
        "latitude": 24.142653,
        "longitude": 120.672154,
        "bounds": {
          "minLatitude": 24.142653,
          "maxLatitude": 24.142653,
          "minLongitude": 120.672154,
          "maxLongitude": 120.672154
        },
        "topSchools": [
          {
            "id": "0039",
            "name": "國立臺中教育大學",
            "townshipName": "西區",
            "students": 5130,
            "status": "正常"
          }
        ]
      },
      {
        "id": "7-wsmc4p3",
        "geohash": "wsmc4p3",
        "precision": 7,
        "count": 1,
        "latitude": 24.122122,
        "longitude": 120.675551,
        "bounds": {
          "minLatitude": 24.122122,
          "maxLatitude": 24.122122,
          "minLongitude": 120.675551,
          "maxLongitude": 120.675551
        },
        "topSchools": [
          {
            "id": "0006",
            "name": "國立中興大學",
            "townshipName": "南區",
            "students": 15845,
            "status": "正常"
          }
        ]
      }
    ]
  }
}
